"label","location","homepage","lat","long","endowment","lat_long"
"Loyola University Maryland",,"http://www.loyola.edu/department/ccsj/about",39.3461,-76.6189,"2.282E8",
"Luther College (Iowa)",,"http://www.luther.edu",43.316,-91.803,"1.688E8",
"Lutheran School of Theology at Chicago",,"http://lstc.edu",41.7957,-87.5991,"2.31E7",
"Lycoming College",,"http://www.lycoming.edu",41.2456,-77.0001,"2.13E8",
"Lynn University",,"http://www.lynn.edu",26.384,-80.125,"2.127E7",
"MCI Management Center Innsbruck",,"http://www.mci.edu/",47.2689,11.3975,"3.0E7",
"MCPHS University",,"https://www.mcphs.edu",42.3369,-71.1014,"8.48E8",
"MGH Institute of Health Professions",,"http://www.mghihp.edu/",42.375,-71.0539,"4.0E7",
"Maastricht University",,"http://www.maastrichtuniversity.nl",50.8458,5.68722,"4.74E8",
"Macalester College",,"http://www.macalester.edu/",44.9392,-93.168,"7.708E8",
"Macdonald Campus",,"https://www.mcgill.ca/macdonald/",45.4075,-73.9383,"9.736E8",
"Macquarie University",,"http://www.mq.edu.au/",-33.7753,151.113,"900.0",
"Macquarie University",,"http://www.mq.edu.au/",-33.7753,151.114,"900.0",
"Macquarie University",,"http://www.mq.edu.au/",-33.7753,151.113,"900.0",
"Macquarie University",,"http://www.mq.edu.au/",-33.7753,151.114,"900.0",
"Maharishi International University",,"https://www.miu.edu",41.018,-91.9688,"9000000.0",
"Ulster University at Coleraine",,"http://www.ulster.ac.uk",55.1478,-6.67222,"6483000.0",
"Ulster University at Coleraine",,"http://www.ulster.ac.uk/campus/coleraine/",55.1478,-6.67222,"6483000.0",
"Union Theological Seminary (New York City)",,"https://utsnyc.edu",40.8114,-73.9642,"1.126E8",
"United States Air Force Academy",,"http://www.usafa.edu/",39.01,-104.89,"4.7E7",
"Universidad Autónoma de Nuevo León",,"http://www.uanl.mx/",25.7272,-100.31,"4.9E8",
"Universidad Juárez Autónoma de Tabasco",,"http://www.ujat.mx",18.0083,-92.925,"4.26E7",
"Universidad Juárez Autónoma de Tabasco",,"http://www.ujat.mx",18.0083,-92.925,"3.96E8",
"Universidad Juárez Autónoma de Tabasco",,"http://www.ujat.mx",18.0083,-92.925,"5.69E8",
"Universidad Juárez Autónoma de Tabasco",,"http://www.ujat.mx",18.0083,-92.925,"5.29E7",
"University College London",,"https://ucl.ac.uk",51.5248,-0.133583,"1.18E8",
"University at Buffalo",,"https://buffalo.edu",43.0,-78.7892,"7.95E8",
"University of Aberdeen",,"http://www.abdn.ac.uk/",57.165,-2.1,"4.86E7",
"University of Adelaide",,"http://www.adelaide.edu.au/",-34.9192,138.604,"2.657E8",
"University of Alberta",,"https://www.ualberta.ca/",53.5244,-113.524,"1.3E9",
"University of Alcalá",,"http://www.uah.es",40.4825,-3.36115,"1.6E8",
"University of Arizona",,"http://www.arizona.edu",32.2317,-110.952,"1.038E9",
"University of Bath",,"http://www.bath.ac.uk/",51.3796,-2.328,"6900000.0",
"University of Birmingham",,"http://www.birmingham.ac.uk/",52.4506,-1.93056,"1.203E8",
"University of Bolton",,"http://www.bolton.ac.uk/",53.5736,-2.43583,"160000.0",
"University of Botswana",,"http://www.ub.bw",-24.6667,25.9333,"3.34E8",
"University of Bradford",,"http://www.bradford.ac.uk/",53.7917,-1.76222,"2.3",
"University of Bridgeport",,"http://www.bridgeport.edu/",41.1659,-73.1911,"3.4133E7",
"University of Bristol",,"http://www.bristol.ac.uk/",51.4564,-2.60444,"72.2",
"University of British Columbia",,"https://ubc.ca/",49.2611,-123.253,"2.182E9",
"University of Caen Normandy",,"http://www.unicaen.fr/home-578581.kjsp%3FRH=1291198060074&RF=UNIV-EN",49.1906,-0.3644,"1.85164267E8",
"University of Calgary",,"https://www.ucalgary.ca/",51.0775,-114.133,"1.2E9",
"University of Cape Town",,"http://www.uct.ac.za",-33.9575,18.4606,"1.18E10",
"University of Central Florida",,"https://www.ucf.edu/",28.6016,-81.2005,"1.647E8",
"University of Chicago Booth School of Business",,"http://www.chicagobooth.edu/",41.7891,-87.5957,"1.034E9",
"University of Colorado",,"https://www.cu.edu/",39.7452,-104.983,"1.452E9",
"University of Curaçao",,"http://www.uoc.cw",12.157,-68.961,"2.0E7",
"University of Deusto",,"http://www.deusto.es",43.2708,-2.9375,"4.8114754E7",
"University of Dublin",,"http://www.tcd.ie/",53.3444,-6.25778,"1.44E8",
"University of Dubuque",,"http://www.dbq.edu",42.4985,-90.6922,"1.605E8",
"University of Dundee",,"https://www.dundee.ac.uk",56.4572,-2.98028,"3.13E7",
"University of Edinburgh",,"https://www.ed.ac.uk",55.9474,-3.18719,"4.599E8",
"University of Edinburgh",,"https://www.ed.ac.uk/",55.9474,-3.18719,"4.599E8",
"Loyola Marymount University",,,33.97,-118.418,"4.718E8",
"Loyola University Chicago",,,41.9999,-87.6578,"6.922E8",
"Loyola University New Orleans",,,29.935,-90.1208,"2.345E8",
"Lubbock Christian University",,,33.5736,-101.934,"2.2E7",
"Luther Seminary",,,44.9847,-93.1964,"1.087E8",
"MIT Sloan School of Management",,,42.3607,-71.0838,"8.12E8",
"Magee College",,,55.006,-7.323,"6483000.0",
"Maine College of Art",,,43.6557,-70.2607,"8100000.0",
"Ulster University",,,54.6036,-5.92861,"1.4365E7",
"Union College",,,42.8172,-73.93,"4.664E8",
"University at Albany, SUNY",,,42.6862,-73.8239,"7.51E7",
"University of Akron",,,41.0752,-81.5115,"2.36E8",
"University of Alabama",,,33.2108,-87.5461,"1.52E9",
"University of Alabama at Birmingham",,,33.5,-86.8075,"537.3",
"University of Alabama in Huntsville",,,34.7272,-86.6398,"7.95E7",
"University of Alaska Anchorage",,,61.1899,-149.827,"5.0159275E7",
"University of Alaska Fairbanks",,,64.8589,-147.836,"1.437E8",
"University of Arkansas",,,36.0687,-94.176,"1.22E9",
"University of Arkansas Honors College",,,36.0677,-94.1715,"2.0E8",
"University of Arkansas at Little Rock",,,34.7225,-92.3407,"8.0E7",
"University of Arkansas at Monticello",,,33.5908,-91.8131,"2.2764898E7",
"University of Arkansas–Fort Smith",,,35.3836,-94.3746,"8.37E7",
"University of Baltimore",,,39.3056,-76.6169,"4.99E7",
"University of Bedfordshire",,,51.8778,-0.411389,"0.52",
"University of Bordeaux",,,44.8172,-0.608465,"7.0E8",
"University of California",,,37.8022,-122.271,"2.11E10",
"University of California, Berkeley",,,37.8719,-122.259,"4.79E9",
"University of California, Davis",,,38.54,-121.75,"1.66E9",
"University of California, Irvine",,,33.6456,-117.842,"1.03E9",
"University of California, Los Angeles",,,34.0694,-118.445,"5.39E9",
"University of California, Merced",,,37.366,-120.424,"5.55E7",
"University of California, Riverside",,,33.9756,-117.331,"2.598E8",
"University of California, San Diego",,,32.8801,-117.234,"1.73E9",
"University of California, San Francisco",,,37.7627,-122.458,"3.89E9",
"University of California, Santa Cruz",,,37.0,-122.06,"2.154E8",
"University of Cambridge",,,52.2053,0.117222,"7.121E9",
"University of Central Arkansas",,,35.077,-92.457,"4.86E7",
"University of Central Missouri",,,38.7591,-93.7374,"4.289E7",
"University of Central Oklahoma",,,35.6583,-97.4719,"3.281E7",
"University of Charleston",,,38.3329,-81.6165,"2.81E7",
"University of Chicago",,,41.7897,-87.5997,"8.5E9",
"University of Cincinnati",,,39.131,-84.516,"1.453E9",
"University of Colombo",,,6.90157,79.8596,"1.461E9",
"University of Colorado Boulder",,,40.0067,-105.267,"1.45E9",
"University of Colorado Colorado Springs",,,38.8922,-104.799,"1.5E9",
"University of Connecticut",,,41.8072,-72.2525,"4.624E8",
"University of Dallas",,,32.8451,-96.9258,"7.6E7",
"University of Dayton",,,39.7404,-84.1792,"6.042E8",
"University of Delaware",,,39.6783,-75.7511,"1.466E9",
"University of Denver",,,39.6783,-104.962,"7.864E8",
"University of Detroit Mercy",,,42.4141,-83.1379,"6.93E7",
"University of East Anglia",,,52.6217,1.24167,"7700000.0",
"A.S. College, Deoghar",,"http://ascollegedeoghar.com/",24.4882,86.6768,,
"A. Gary Anderson Graduate School of Management",,"https://business.ucr.edu/",33.9698,-117.326,,
"A. M. B.Ed. College",,"http://ambedcollegegaya.org",24.7937,84.9821,,
"A. V. C. College",,"http://www.avccollege.net/",11.0978,79.6507,,
"ABSS Institute of Technology",,"http://www.abss.edu.in/",29.0251,77.774,,
"ACPM Medical College",,"http://www.jmfacpm.com",20.8993,74.7241,,
"ACPM Medical College",,"http://www.acpmjmf.com",20.8993,74.7241,,
"AES Bhausaheb Firodiya High School",,"https://web.archive.org/web/20130523151037/http:/aesded.com/",19.0904,74.7339,,
"AES Bhausaheb Firodiya High School",,"https://web.archive.org/web/20130523151037/http://aesded.com/",19.0904,74.7339,,
"AFDA, The School for the Creative Economy",,"http://www.afda.co.za/",-33.9317,18.4683,,
"AMC MET Medical College",,"http://www.metmedical.edu.in",22.9983,72.6044,,
"ANU College of Law",,"http://law.anu.edu.au",-35.281,149.119,,
"ANU Joint Colleges of Science",,"http://science.anu.edu.au/",-35.281,149.119,,
"ANU Joint Colleges of Science",,"http://science.anu.edu.au//",-35.281,149.119,,
"Lovely Professional University",,"http://lpu.in",31.2536,75.7037,,
"Lowell House",,"http://www.lowell.harvard.edu",42.3708,-71.1182,,
"Lowell State College",,"http://www.uml.edu",42.642,-71.3354,,
"Lower Columbia College",,"http://www.lowercolumbia.edu",46.1431,-122.938,,
"Loyalist College",,"http://www.loyalistcollege.com",44.1541,-77.4306,,
"Loyola Academy",,"http://www.goramblers.org",42.0836,-87.7608,,
"Loyola Academy, Secunderabad",,"http://loyolaacademyugpg.ac.in",17.5026,78.4838,,
"Loyola College, Chennai",,"http://loyolacollege.edu",13.062,80.234,,
"Loyola College, Manvi",,"https://www.loyolacollegemanvi.com",16.0053,77.07,,
"Loyola College of Culion",,"http://loyolacollege-culion.simplesite.com",11.8353,119.993,,
"Loyola College of Education, Jamshedpur",,"http://www.loyolacollege.in/",22.7809,86.2678,,
"Loyola College of Social Sciences",,"http://loyolacollegekerala.edu.in/",8.54344,76.9127,,
"Loyola Industrial Training Institute, Bangalore",,"http://www.loyolaitiblr.com",12.8695,77.5926,,
"Loyola Institute of Business Administration",,"http://www.liba.edu/",13.0636,80.2347,,
"Loyola Jesuit College",,"http://www.loyolajesuit.org/",4.92719,6.96688,,
"Loyola Polytechnic Institute",,"http://superior.ipl.edu.do/",18.4113,-70.1132,,
"Loyola University Andalusia",,"http://www.uloyola.es",40.4223,-3.70591,,
"Loyola University of Congo",,"https://loyola.cd",-4.45361,15.2892,,
"Lucerne University of Applied Sciences and Arts",,"http://www.hslu.ch/",47.014,8.306,,
"Lucknow College of Arts and Crafts",,"http://www.lkouniv.ac.in/arts_college.htm",26.8626,80.9329,,
"Lucy Cavendish College, Cambridge",,"http://www.lucy.cam.ac.uk/",52.2112,0.1101,,
"Ludwig Maximilian University of Munich",,"https://www.en.uni-muenchen.de/index.html%7C2=www.en.uni-muenchen.de",48.1508,11.5803,,
"Lugazi University",,"https://web.archive.org/web/20090819164551/http:/www.lugaziuniversity.ac.ug/",0.37,32.9131,,
"Lugazi University",,"https://web.archive.org/web/20090819164551/http://www.lugaziuniversity.ac.ug/",0.37,32.9131,,
"Luhansk State Medical University",,"http://lsmu.edu.ua",48.5111,39.3639,,
"Lukhdhirji Engineering College",,"http://www.lecm.cteguj.in/",22.8206,70.8447,,
"Luleå University of Technology",,"http://www.ltu.se/",65.6181,22.1389,,
"Luna Community College",,"http://www.luna.edu",35.6159,-105.253,,
"Lund School of Economics and Management",,"https://www.ehl.lu.se/",55.71,13.2137,,
"Lund University",,"https://www.lu.se",55.7058,13.1933,,
"Lund University",,"https://www.lunduniversity.lu.se",55.7058,13.1933,,
"Lundy–Fetterman School of Business",,"https://business.campbell.edu/",35.4122,-78.7425,,
"Lunglei Government College",,"http://lgc.ac.in/",22.8945,92.7449,,
"Lurleen B. Wallace Community College",,"http://www.lbwcc.edu/",31.3225,-86.4528,,
"Lusíada University of Porto",,"http://www.por.ulusiada.pt/",41.1758,-8.5825,,
"Luther College (Saskatchewan)",,"https://www.luthercollege.edu/university",50.4545,-104.652,,
"Luther University",,"http://www.ltu.ac.kr",37.2653,127.113,,
"Lutheran Theological Seminary at Gettysburg",,"http://unitedlutheranseminary.edu/",39.8316,-77.2443,,
"Lutheran Theological Seminary at Philadelphia",,"https://www.unitedlutheranseminary.edu",40.0619,-75.1917,,
"Lutheran Theological Southern Seminary",,"http://lr.edu/ltss",34.0427,-81.0386,,
"Lutsk National Technical University",,"http://lntu.edu.ua",50.7258,25.296,,
"Luxembourg Institute of Socio-Economic Research",,"http://www.liser.lu/",49.5033,5.94844,,
"Luxembourg School of Business",,"http://www.luxsb.lu",49.607,6.10813,,
"Luzerne County Community College",,"http://www.luzerne.edu/",41.193,-75.993,,
"Lviv Polytechnic",,"http://www.lp.edu.ua",49.8356,24.0147,,
"Lyceum of Subic Bay",,"https://www.lsb.edu.ph/",14.8234,120.279,,
"Lyceum of the Philippines University–Cavite",,"https://web.archive.org/web/20120421015016/http:/www.cavite.lpu.edu.ph/",14.2908,120.916,,
"Lycée Louis-le-Grand",,"http://www.louislegrand.org/",48.8481,2.34453,,
"Lycée privé Sainte-Geneviève",,"http://www.bginette.com/%7CBGinette.com",48.8036,2.15528,,
"Lyle School of Engineering",,"http://www.smu.edu/lyle/",32.8464,-96.7861,,
"Lyndon State College",,"http://www.lyndonstate.edu/",44.5353,-72.0253,,
"Lyons Hall (University of Notre Dame)",,"http://www.nd.edu/~lyons/",41.7007,-86.2433,,
"M.B.C. Institute of Engineering and Technology",,"http://webscte.org/",23.2496,87.8787,,
"M.E.S. Ponnani College, Ponnani",,"https://web.archive.org/web/20110518033229/http:/mesponnanicollege.com/profile.html",10.7647,75.9254,,
"M.O.P. Vaishnav College for Women",,"http://mopvc.edu.in/",13.0553,80.2503,,
"M. Kumarasamy College of Engineering",,"http://mkce.ac.in",11.0549,78.0481,,
"MAK College of Pharmacy",,"http://www.makpharmacollege.ac.in",17.3292,78.2918,,
"MARA Japan Industrial Institute Beranang",,"http://mjii.kktm.edu.my/",2.9046,101.865,,
"MBS College of Crete",,"http://www.collegeofcrete.com",35.3284,25.1185,,
"MEA Engineering College, Perinthalmanna",,"https://www.meaec.edu.in/",11.0383,76.2627,,
"MES Asmabi College",,"http://www.mesasmabi.com",10.2668,76.1425,,
"MES College Marampally, Aluva",,"http://www.mesmarampally.org",10.1073,76.4116,,
"MES Kalladi College",,"http://meskc.ac.in",10.9902,76.4384,,
"MES Keveeyam College, Valanchery",,"http://www.meskvmcollege.org",10.8814,76.0762,,
"MIES R.M. Law College",,"http://mies-lawcollege.com/index.php",22.4431,88.4271,,
"MIT School of Architecture and Planning",,"http://sap.mit.edu/",42.3651,-71.0932,,
"MIT School of Telecom Management, Pune",,"http://www.mitsot.com",18.6099,73.755,,
"MIT World Peace University",,"https://mitwpu.edu.in/",18.5186,73.8149,,
"MMNSS College Kottiyam",,"http://mmnsscollege.ac.in/",8.8686,76.6678,,
"MM College, Bikram",,"https://www.mmcollege.co.in/",25.4469,84.8483,,
"MSU Faculty of History",,"https://www.msu.ru/en/info/struct/depts/hist.html",55.7,37.5294,,
"MaKami College",,"https://www.makamicollege.com",53.5397,-113.423,,
"Ma Chung University",,"https://www.machung.ac.id/",-7.95739,112.59,,
"Maastricht School of Management",,"http://www.msm.nl",50.8374,5.7159,,
"Maastricht University Campus Venlo",,"http://www.maastrichtuniversity.nl/campusvenlo",51.3692,6.17389,,
"MacCormac College",,"http://www.maccormac.edu/",41.8818,-87.6267,,
"MacEwan University",,"http://www.macewan.ca",53.5469,-113.505,,
"Macclesfield College",,"http://www.macclesfield.ac.uk",53.251,-2.138,,
"Machakos University",,"http://www.mksu.ac.ke",-1.38417,37.8294,,
"Mackay Medical College",,"http://www.mmc.edu.tw/",25.2544,121.495,,
"Mackenzie Presbyterian University",,"http://www.mackenzie.br/",-23.547,-46.652,,
"Mackinac College (Humbard)",,"https://www.facebook.com/pages/Cathedral-of-Tomorrow/103243419728996%23",45.8514,-84.6054,,
"Macquarie Law School",,"http://www.law.mq.edu.au",-33.7754,151.112,,
"Macquarie University Faculty of Business and Economics",,"http://www.businessandeconomics.mq.edu.au/",-33.7718,151.116,,
"Madan Mohan College",,"http://mmc.edu.bd",24.897,91.8619,,
"Madan Mohan Malaviya University of Technology",,"http://www.mmmut.ac.in",26.7306,83.4333,,
"Madeenathul Uloom Arabic College",,"http://www.muacollege.ac.in/",11.175,75.9187,,
"Madenat Alelem University College",,"http://www.madenatalelem.com",33.3786,44.3358,,
"Madera Community College",,"https://www.maderacenter.com/",36.9242,-119.998,,
"Madhav Institute of Technology and Science",,"http://mitsgwalior.in/",26.2326,78.2052,,
"Madhupur College, Jharkhand",,"http://madhupurcollege.com",24.2595,86.6402,,
"Madhusudan Hore Mahavidyalaya",,"http://mhm.ac.in/",26.3272,89.2869,,
"Madison Area Technical College",,"http://madisoncollege.edu",43.1218,-89.3278,,
"Madisonville Community College",,"http://www.madisonville.kctcs.edu",37.3643,-87.5131,,
"Madras Christian College",,"https://mcc.edu.in",12.9213,80.122,,
"Madras Institute of Technology",,"http://www.mitindia.edu/",12.9481,80.1397,,
"Madras Medical College",,"http://www.mmc.ac.in",13.0816,80.2789,,
"Madras Sanskrit College",,"https://www.madrassanskritcollege.edu.in/",13.0401,80.2684,,
"Madras School of Economics",,"http://www.mse.ac.in/",13.0171,80.2379,,
"Madras Veterinary College",,"http://www.tanuvas.tn.nic.in/index.html",13.0857,80.2666,,
"Madrid Royal Conservatory",,"https://www.rcsmm.eu",40.4092,-3.69434,,
"Madura College",,"http://www.maduracollege.edu.in",9.911,78.108,,
"Madura State Polytechnic",,"http://www.poltera.ac.id",-7.21559,113.272,,
"Madurai Medical College",,"http://www.mdmc.ac.in/",9.92785,78.1368,,
"Magdalen College, Oxford",,"http://www.magd.ox.ac.uk/",51.7524,-1.24708,,
"Magdalen College of the Liberal Arts",,"http://www.magdalen.edu",43.3136,-71.8336,,
"Magdalene College, Cambridge",,"http://www.magd.cam.ac.uk/",52.2105,0.1165,,
"Magnitogorsk State University",,"http://www.masu.ru/",53.388,58.9873,,
"Magrahat College",,"http://Magrahatcollege.in/",22.2463,88.3733,,
"Mahachulalongkornrajavidyalaya University",,"https://www.mcu.ac.th",13.755,100.49,,
"Mahadevananda Mahavidyalaya",,"http://www.mmbkp.in",22.7739,88.3362,,
"Mahalakshmi Engineering College",,"http://www.mahalakshmiengineeringcollege.com",10.89,78.6372,,
"Mahamaya Rajkiya Allopathic Medical College",,"http://mramc.in",26.5086,82.6141,,
"Mahanakorn University of Technology",,"http://www.mut.ac.th/",13.8441,100.856,,
"Mahapanya Vidayalai",,"http://www.mahapanya.ac.th",7.0046,100.491,,
"Maharaja's College, Ernakulam",,"https://www.maharajas.ac.in",9.971,76.281,,
"Maharaja's College, Mysore",,"https://web.archive.org/web/20151222122249/http:/www.mcm.ac.in/",12.3053,76.6408,,
"Maharaja Agrasen College",,"http://mac.du.ac.in/",28.6032,77.3219,,
"Maharaja Agrasen Institute of Technology",,"http://www.mait.ac.in/",28.7224,77.066,,
"Maharaja Agrasen University",,"http://www.mau.ac.in",30.8775,76.8767,,
"Maharaja Bir Bikram College",,"https://web.archive.org/web/20120111092929/http:/mbbcollege.nic.in/",23.8277,91.2977,,
"Maharaja Bir Bikram University",,"http://mbbuniversity.ac.in",23.8278,91.2974,,
"Maharaja Manindra Chandra College",,"http://www.mmccollege.co.in/",22.6013,88.3701,,
"Maharaja Nandakumar Mahavidyalaya",,"http://maharajanandakumarmahavidyalaya.org/",22.1704,87.9071,,
"Maharaja Sayajirao University of Baroda",,"http://www.msubaroda.ac.in",22.3099,73.186,,
"Maharaja Sris Chandra College",,"http://www.msccollege.org/mschome.php",22.6013,88.3701,,
"Maharajadhiraj Uday Chand Women's College",,"http://www.mucwcburdwan.org/",23.2391,87.8515,,
"Maharana Institute of Professional Studies",,"http://www.mpgi.in",26.467,80.35,,
"Maharana Pratap Sports College",,"http://www.mpscollege.in",30.303,78.1044,,
"Maharani Kasiswari College",,"http://www.mkc.ac.in/",22.6013,88.3701,,
"Maharani Laxmi Bai Govt. College of Excellence",,"https://mlbcollegegwalior.org",26.1971,78.1636,,
"Maharani Laxmi Bai Medical College",,"http://www.mlbmcj.in",25.459,78.6159,,
"Maharashtra College of Arts Science and Commerce",,"https://maharashtracollege.org",18.9679,72.8267,,
"Maharashtra College of Engineering Nilanga",,"http://www.mce-nilanga.com/",18.53,73.85,,
"Maharishi Markandeshwar Institute of Medical Sciences and Research",,"http://mmimsr.mmumullana.org/",30.2508,77.0451,,
"Maharishi Markandeshwar University, Mullana",,"http://www.mmumullana.org",30.2508,77.0451,,
"Maharishi Sandipani Rashtriya Ved Vidya Pratishthan",,"http://msrvvp.ac.in",23.132,75.7372,,
"Maharshi Dayanand University",,"http://www.mdu.ac.in/",28.9,76.57,,
"Mahasarakham University",,"https://inter.msu.ac.th/",16.1994,103.284,,
"Mahatma Gandhi College, Purulia",,"https://mahatmagandhicollegelalpur.ac.in/",23.3068,86.6247,,
"Mahatma Gandhi Institute of Medical Sciences",,"http://www.mgims.ac.in/",20.7394,78.6607,,
"Mahatma Gandhi Medical College & Research Institute",,"http://www.mgmcri.ac.in",11.8121,79.7781,,
"Mahatma Gandhi Memorial College",,"http://mgmudupi.ac.in",13.3466,74.7665,,
"Mahatma Gandhi Memorial Medical College, Jamshedpur",,"http://mgmmedicalcollege.org",22.8116,86.2107,,
"Mahatma Gandhi University, Nalgonda",,"http://www.mguniversity.ac.in",17.05,79.27,,
"Mahatma Jyotiba Phule Rohilkhand University",,"http://www.mjpru.ac.in",28.3661,79.4572,,
"Mahatma Phule Krishi Vidyapeeth",,"http://www.mpkv.ac.in",19.3491,74.6461,,
"Mahavir Institute of Engineering and Technology",,"http://www.miet.edu.in/",20.2278,85.6707,,
"Mahendra Engineering College",,"http://www.mahendra.info",11.4778,77.9997,,
"Mahendra Multiple Campus, Dharan",,"http://mmcdharan.edu.np/wp/",26.814,87.2822,,
"Mahesh Bhattacharya Homoeopathic Medical College and Hospital",,"http://mbhmch.org/index.html",22.5863,88.3091,,
"Maheshtala College",,"http://www.maheshtalacollege.org/",22.5002,88.2354,,
"Maheshwara Engineering College",,"http://www.mecp.net.in/",17.5622,78.2028,,
"Maheshwara Institute Of Technology",,"http://www.mith.ac.in/",17.5625,78.2021,,
"Maheshwara Medical College and Hospital",,"http://www.maheshwaramedical.com./",17.5631,78.1961,,
"Mahidol University",,"http://www.mahidol.ac.th",13.7934,100.323,,
"Mahila College, Khagaul",,"https://www.mahilacollegekhagaul.com/",25.5842,85.0469,,
"Mahila Maha Vidyalaya",,"http://www.bhu.ac.in/mmv/",25.2756,83.0011,,
"Mahindra University École Centrale School of Engineering",,"https://twitter.com/studyatmec",17.5711,78.4361,,
"Mahindra University École Centrale School of Engineering",,"http://www.mahindraecolecentrale.edu.in",17.5711,78.4361,,
"Mahindra University École Centrale School of Engineering",,"https://www.facebook.com/studyatmec",17.5711,78.4361,,
"Mahishadal Girls College",,"http://www.mahishadalgirlscollege.in/",22.1918,87.9924,,
"Mahishadal Raj College",,"http://www.mahishadalrajcollege.com/",22.1865,87.9816,,
"Mahitosh Nandy Mahavidyalaya",,"http://mahitoshnandymv.com/",22.7487,88.0604,,
"Mailam Engineering College",,"http://www.mailamengg.com/",12.1167,79.6153,,
"Maimonides Schools for Jewish Studies",,"http://www.maimonidescollege.ca",43.2507,-79.9201,,
"Main campus of the Georgia Institute of Technology",,"http://www.housing.gatech.edu/assignments/undergraduate_reshalls_detail.cfm%3FBldgID=015",33.7764,-84.3972,,
"Main campus of the Georgia Institute of Technology",,"https://housing.gatech.edu/building/graduate-living-center",33.7764,-84.3972,,
"Main campus of the Georgia Institute of Technology",,"https://housing.gatech.edu/building/armstrong",33.7764,-84.3972,,
"Main campus of the Georgia Institute of Technology",,"https://housing.gatech.edu/building/brown",33.7764,-84.3972,,
"Main campus of the Georgia Institute of Technology",,"https://housing.gatech.edu/building/caldwell",33.7764,-84.3972,,
"Main campus of the Georgia Institute of Technology",,"https://housing.gatech.edu/building/center-street-north",33.7764,-84.3972,,
"Main campus of the Georgia Institute of Technology",,"https://housing.gatech.edu/building/center-street-south",33.7764,-84.3972,,
"Main campus of the Georgia Institute of Technology",,"https://housing.gatech.edu/building/cloudman",33.7764,-84.3972,,
"Main campus of the Georgia Institute of Technology",,"https://housing.gatech.edu/building/crecine",33.7764,-84.3972,,
"Main campus of the Georgia Institute of Technology",,"https://housing.gatech.edu/building/eighth-street-east",33.7764,-84.3972,,
"Main campus of the Georgia Institute of Technology",,"https://housing.gatech.edu/building/eighth-street-south",33.7764,-84.3972,,
"Main campus of the Georgia Institute of Technology",,"https://housing.gatech.edu/building/eighth-street-west",33.7764,-84.3972,,
"Main campus of the Georgia Institute of Technology",,"https://housing.gatech.edu/building/field",33.7764,-84.3972,,
"Main campus of the Georgia Institute of Technology",,"https://housing.gatech.edu/building/fitten",33.7764,-84.3972,,
"Main campus of the Georgia Institute of Technology",,"https://housing.gatech.edu/building/folk",33.7764,-84.3972,,
"Main campus of the Georgia Institute of Technology",,"https://housing.gatech.edu/building/freeman",33.7764,-84.3972,,
"Main campus of the Georgia Institute of Technology",,"https://housing.gatech.edu/building/fulmer",33.7764,-84.3972,,
"Main campus of the Georgia Institute of Technology",,"https://housing.gatech.edu/building/glenn",33.7764,-84.3972,,
"Main campus of the Georgia Institute of Technology",,"https://housing.gatech.edu/building/goldin-house",33.7764,-84.3972,,
"Main campus of the Georgia Institute of Technology",,"https://housing.gatech.edu/building/gray-house",33.7764,-84.3972,,
"Main campus of the Georgia Institute of Technology",,"https://housing.gatech.edu/building/hanson",33.7764,-84.3972,,
"Main campus of the Georgia Institute of Technology",,"https://housing.gatech.edu/building/harris",33.7764,-84.3972,,
"Main campus of the Georgia Institute of Technology",,"https://housing.gatech.edu/building/harrison",33.7764,-84.3972,,
"Main campus of the Georgia Institute of Technology",,"https://housing.gatech.edu/building/hayes-house",33.7764,-84.3972,,
"Main campus of the Georgia Institute of Technology",,"https://housing.gatech.edu/building/hefner",33.7764,-84.3972,,
"Main campus of the Georgia Institute of Technology",,"https://housing.gatech.edu/building/hopkins",33.7764,-84.3972,,
"Main campus of the Georgia Institute of Technology",,"https://housing.gatech.edu/building/howell",33.7764,-84.3972,,
"Main campus of the Georgia Institute of Technology",,"https://housing.gatech.edu/building/matheson",33.7764,-84.3972,,
"Main campus of the Georgia Institute of Technology",,"https://housing.gatech.edu/building/maulding",33.7764,-84.3972,,
"Main campus of the Georgia Institute of Technology",,"https://housing.gatech.edu/building/montag",33.7764,-84.3972,,
"Main campus of the Georgia Institute of Technology",,"https://housing.gatech.edu/building/nelson-shell",33.7764,-84.3972,,
"Main campus of the Georgia Institute of Technology",,"https://housing.gatech.edu/building/north-avenue-east",33.7764,-84.3972,,
"Main campus of the Georgia Institute of Technology",,"https://housing.gatech.edu/building/north-avenue-north",33.7764,-84.3972,,
"Main campus of the Georgia Institute of Technology",,"https://housing.gatech.edu/building/north-avenue-south",33.7764,-84.3972,,
"Main campus of the Georgia Institute of Technology",,"https://housing.gatech.edu/building/north-avenue-west",33.7764,-84.3972,,
"Main campus of the Georgia Institute of Technology",,"https://housing.gatech.edu/building/perry",33.7764,-84.3972,,
"Main campus of the Georgia Institute of Technology",,"https://housing.gatech.edu/building/smith",33.7764,-84.3972,,
"Main campus of the Georgia Institute of Technology",,"https://housing.gatech.edu/building/stein-house",33.7764,-84.3972,,
"Main campus of the Georgia Institute of Technology",,"https://housing.gatech.edu/building/tenth-and-home-bldg-a",33.7764,-84.3972,,
"Main campus of the Georgia Institute of Technology",,"https://housing.gatech.edu/building/tenth-and-home-bldg-b",33.7764,-84.3972,,
"Main campus of the Georgia Institute of Technology",,"https://housing.gatech.edu/building/tenth-and-home-bldg-c",33.7764,-84.3972,,
"Main campus of the Georgia Institute of Technology",,"https://housing.gatech.edu/building/tenth-and-home-bldg-d",33.7764,-84.3972,,
"Main campus of the Georgia Institute of Technology",,"https://housing.gatech.edu/building/tenth-and-home-bldg-e",33.7764,-84.3972,,
"Main campus of the Georgia Institute of Technology",,"https://housing.gatech.edu/building/tenth-and-home-bldg-f",33.7764,-84.3972,,
"Main campus of the Georgia Institute of Technology",,"https://housing.gatech.edu/building/tenth-and-home-bldg-g",33.7764,-84.3972,,
"Main campus of the Georgia Institute of Technology",,"https://housing.gatech.edu/building/woodruff-north",33.7764,-84.3972,,
"Main campus of the Georgia Institute of Technology",,"https://housing.gatech.edu/building/woodruff-south",33.7764,-84.3972,,
"Main campus of the Georgia Institute of Technology",,"https://housing.gatech.edu/building/zbar",33.7764,-84.3972,,
"Maine Media College",,"http://www.mainemedia.edu/college/",44.1937,-69.0764,,
"Maison française d'Oxford",,"https://mfo.web.ox.ac.uk/",51.7657,-1.2591,,
"Majan College (University College)",,"http://www.majancollege.edu.om",23.6157,58.5468,,
"Majhighariani Institute of Technology and Science",,"http://mits.edu.in/",19.2462,83.4463,,
"Majmaah University",,"https://www.mu.edu.sa/en",25.8697,45.4117,,
"Major Dhyan Chand Sports College, Saifai",,"http://upsports.gov.in/pages/sportscollege-en/topmenubar/about-the-dept/sportscollege-en-other-sports-college",26.9648,78.9603,,
"Makerere University",,"https://www.mak.ac.ug/",0.335,32.5675,,
"Makerere University College of Health Sciences",,"http://chs.mak.ac.ug/",0.338333,32.5772,,
"Makerere University School of Public Health",,"http://www.musph.ac.ug",0.3375,32.5772,,
"Makran Medical College",,"https://www.facebook.com/mmcturbat",34.2046,73.2332,,
"Malabar Christian College",,"https://mccclt.ac.in/",11.2641,75.7779,,
"Malaviya National Institute of Technology, Jaipur",,"http://www.mnit.ac.in",26.8622,75.8156,,
"Malawi Adventist University",,"http://mau.ac.mw",13.95,33.7,,
"Malaysian Han Studies",,"http://www.mahans.edu.my/",2.2633,102.306,,
"Malaysian Institute of Art",,"http://www.mia.edu.my/",3.21053,101.746,,
"Malcolm X College",,"http://malcolmx.ccc.edu/",41.8781,-87.6753,,
"Malda College",,"http://www.maldacollege.ac.in",25.0014,88.1367,,
"Malda Medical College and Hospital",,"http://www.maldamedicalcollege.in/",24.9926,88.1407,,
"Malda Women's College",,"http://www.mwc.ac.in/",24.998,88.1375,,
"Maldives National University",,"http://mnu.edu.mv",4.1713,73.5091,,
"Malek-Ashtar University of Technology",,"http://www.mut-es.ac.ir",35.7831,51.4931,,
"Malek-Ashtar University of Technology",,"http://www.mut.ac.ir",35.7831,51.4931,,
"Carthage University",,"http://www.ucar.rnu.tn/",36.8706,10.3344,,
"Case School of Engineering",,"http://www.engineering.case.edu/",41.5027,-81.608,,
"Castelldefels School of Telecommunications and Aerospace Engineering",,"http://www.eetac.upc.edu",41.2756,1.98694,,
"Cookstown High School",,"http://www.cookstownhighschool.org",54.643,-6.737,,
"Copenhagen Institute of Interaction Design",,"http://ciid.dk/",55.6825,12.5932,,
"Copperbelt University School of Medicine",,"http://www.cbu.edu.zm/index.php/schools/medicine/",-12.9706,28.6342,,
"Corcoran School of the Arts and Design",,"http://corcoran.gwu.edu",38.8958,-77.0402,,
"Cork College of Commerce",,"http://www.corkcollegeofcommerce.ie/%7Cwww.corkcollegeofcommerce.ie",51.8957,-8.46941,,
"Cornell 100+ MPG Team",,"http://www.cornell100mpg.com/",42.4485,-76.4786,,
"Cornell Lab of Ornithology",,"http://www.birds.cornell.edu/",42.48,-76.4511,,
"Cornell University College of Engineering",,"https://www.engineering.cornell.edu",42.4447,-76.4843,,
"UST Angelicum College",,"http://www.angelicum.edu.ph",14.6277,121.01,,
"UTHealth School of Dentistry",,"https://dentistry.uth.edu/",29.6946,-95.3931,,
"Ubon Ratchathani University",,"http://www.english.ubu.ac.th",15.118,104.901,,
"Udayana University",,"https://www.unud.ac.id/%3Flang=en%7C2=unud.ac.id",-8.79889,115.172,,
"Udaynarayanpur Madhabilata Mahavidyalaya",,"http://www.udaynarayanpurmahavidyalaya.org/",22.7219,87.9872,,
"Ufa State Aviation Technical University",,"http://ugatu.ac.ru/",54.725,55.9422,,
"Uganda Christian University",,"http://www.ucu.ac.ug/",0.355,32.745,,
"Uganda Martyrs University",,"http://www.umu.ac.ug/",0.00361111,32.0144,,
"Uganda Technology and Management University",,"http://www.utamu.ac.ug/",0.326111,32.5836,,
"Ujjain Engineering College",,"http://www.uecu.ac.in/",23.1461,75.7955,,
"Ukhta State Technical University",,"http://en.ugtu.net",63.5567,53.6937,,
"Ukrainian Catholic University",,"http://www.ucu.edu.ua/eng/",49.8231,24.0375,,
"Ukrainian Free University",,"http://www.ufu-muenchen.de/",48.1637,11.5094,,
"Ukrainian State University of Finance and International Trade",,"http://usufit.edu.ua/",48.3042,38.0181,,
"Ulsan National Institute of Science and Technology",,"http://www.unist.ac.kr",35.573,129.19,,
"Ultra College of Engineering and Technology",,"http://ucetw.ac.in/",9.9727,78.2115,,
"Ulyanovsk State Technical University",,"http://ulstu.ru",54.3511,48.3897,,
"Uma Charan Pattnaik Engineering School",,"http://ucpes.in",19.3095,84.8247,,
"Umes Chandra College",,"http://www.umeschandracollege.com/",22.5738,88.363,,
"Umpqua Community College",,"http://www.umpqua.edu/",43.29,-123.333,,
"Unicorn University",,"http://www.unicornuniversity.net",50.0868,14.4631,,
"Union Bible College and Seminary",,"https://ubca.org/",40.0386,-86.1261,,
"Union Biblical Seminary",,"http://www.ubs.ac.in/",18.4772,73.8643,,
"Union College (Kentucky)",,"http://www.unionky.edu",36.8703,-83.8881,,
"Union County College",,"http://www.UCC.edu",40.6678,-74.3197,,
"Union Presbyterian Seminary",,"http://www.upsem.edu",37.5788,-77.4494,,
"Union School of Theology",,"http://www.ust.ac.uk",51.507,-3.607,,
"Union Theological Seminary (Philippines)",,"https://uniontheologicalseminary-public.sharepoint.com",14.2925,120.962,,
"Union University",,"https://www.uu.edu",35.683,-88.8565,,
"Union University (Serbia)",,"http://union.edu.rs",44.8217,20.4629,,
"Unique College of Medical Science and Hospital",,"http://uea.edu.np/",26.5992,86.7228,,
"Unisinos",,"http://www.unisinos.br",-29.7944,-51.1539,,
"United Arab Emirates University",,"http://www.uaeu.ac.ae/",24.2288,55.7475,,
"United College (Hong Kong)",,"http://www.uc.cuhk.edu.hk/",22.4211,114.205,,
"United College of Aviation, Science & Management",,"https://www.uca.edu.bd",23.7399,90.3827,,
"United College of Engineering & Research",,"http://www.united.ac.in/",28.4647,77.4892,,
"United International College",,"https://uic.edu.hk/en/",22.3531,113.516,,
"United International College",,"https://uic.edu.hk//en/",22.3531,113.516,,
"United International University",,"http://www.uiu.ac.bd",23.798,90.4498,,
"United Methodist University",,"http://umu.edu.lr/",6.31764,-10.8053,,
"United Nations University",,"http://www.unu.edu/",35.6624,139.708,,
"United Nations University International Institute for Software Technology",,"https://web.archive.org/web/20071115223300/http:/www.iist.unu.edu/",22.1958,113.549,,
"United Nations University International Institute for Software Technology",,"https://web.archive.org/web/20071115223300/http://www.iist.unu.edu/",22.1958,113.549,,
"United States Air Force Academy Preparatory School",,"http://www.usafa.edu/%3Fcatname=Prep%20School",38.9786,-104.861,,
"United States Army War College",,"http://www.armywarcollege.edu/",40.211,-77.173,,
"United States Coast Guard Academy",,"http://www.cga.edu/",41.3728,-72.1017,,
"United States International University Africa",,"http://www.usiu.ac.ke/",-1.21806,36.8792,,
"United States Merchant Marine Academy",,"http://www.usmma.edu/",40.8122,-73.7636,,
"United States Military Academy",,"https://web.archive.org/web/20080609184705/http:/www.westpoint.edu/",41.393,-73.958,,
"United States Naval Academy",,"http://www.usna.edu",38.9828,-76.4851,,
"United States Sports Academy",,"http://www.ussa.edu",30.6392,-87.9118,,
"United Theological College, Bangalore",,"http://www.utc.edu.in/",12.9958,77.5989,,
"Unity College (Maine)",,"http://www.unity.edu",44.6039,-69.3308,,
"Universidad Alas Peruanas",,"http://www.uap.edu.pe/",-12.0694,-77.0514,,
"Universidad Americana (Paraguay)",,"http://www.uamericana.edu.py",-25.2786,-57.5994,,
"Universidad Anáhuac México",,"https://www.anahuac.mx/mexico/",19.3363,-99.2443,,
"Universidad Argentina de la Empresa",,"http://www.uade.edu.ar/",-34.6167,-58.3817,,
"Universidad Autónoma Agraria Antonio Narro",,"http://www.uaaan.mx/",25.3934,-101.001,,
"Universidad Autónoma Intercultural de Sinaloa",,"http://uaim.edu.mx",25.9496,-108.928,,
"Universidad Autónoma de Chiriquí",,"http://www.unachi.ac.pa",8.433,-82.451,,
"Universidad Autónoma de Ciudad Juárez",,"http://www.uacj.mx/",31.7412,-106.445,,
"Universidad Autónoma de Guadalajara",,"http://www.uag.edu",20.6937,-103.416,,
"Universidad Autónoma de Guadalajara",,"http://www.uag.mx/",20.6937,-103.416,,
"Universidad Autónoma de Occidente (Mexico)",,"http://uadeo.mx",25.8139,-108.962,,
"Universidad Autónoma de San Luis Potosí",,"http://www.uaslp.mx",22.1528,-100.978,,
"Universidad Autónoma de la Ciudad de México",,"http://www.uacm.edu.mx",19.3858,-99.1608,,
"Universidad Católica Boliviana",,"http://www.ucb.edu.bo/",-16.5227,-68.1118,,
"Universidad Católica Santa María La Antigua",,"http://usma.ac.pa/",9.0294,-79.5209,,
"Universidad Central del Caribe",,"http://uccaribe.edu",18.3662,-66.1533,,
"Universidad Continental",,"https://ucontinental.edu.pe/",-12.0474,-75.1987,,
"Universidad Del Pacífico – Ecuador",,"http://www.upacifico.edu.ec/",-2.1825,-79.9481,,
"Universidad Externado de Colombia",,"http://www.uexternado.edu.co",4.5958,-74.0684,,
"Universidad Iberoamericana",,"http://www.uia.mx",19.3711,-99.2636,,
"Universidad Iberoamericana León",,"http://www.leon.uia.mx",21.1284,-101.626,,
"Universidad Iberoamericana Puebla",,"https://www.iberopuebla.mx/",19.3711,-99.2636,,
"Universidad Intercontinental",,"http://www.uic.edu.mx/",19.28,-99.171,,
"Universidad Metropolitana",,"http://www.unimet.edu.ve/",10.4994,-66.7847,,
"Universidad Michoacana de San Nicolás de Hidalgo",,"http://www.umich.mx",19.6914,-101.207,,
"Universidad Nacional Autónoma de Honduras",,"http://www.unah.edu.hn",14.0853,-87.1631,,
"Universidad Nacional de la Amazonía Peruana",,"http://www.unapiquitos.edu.pe/",-3.82721,-73.3555,,
"Universidad Popular Autónoma del Estado de Puebla",,"http://www.upaep.mx/",19.0485,-98.2163,,
"Universidad Privada San Juan Bautista",,"https://www.upsjb.edu.pe/",-12.1964,-77.0075,,
"Universidad Rafael Belloso Chacín",,"http://www.urbe.edu/",10.6933,-71.6337,,
"Universidad Regiomontana",,"http://www.u-erre.mx/",25.671,-100.322,,
"Universidad San Francisco de Quito",,"http://www.usfq.edu.ec/",-0.196111,-78.4356,,
"Universidad San Ignacio de Loyola",,"http://www.usil.edu.pe",-12.0725,-76.9517,,
"Universidad Santa María (Venezuela)",,"http://www.usm.edu.ve/usmccs/",10.4922,-66.78,,
"Universidad Tecnológica de Tula-Tepeji",,"http://www.uttt.edu/%7CUTTT.edu.mx",20.013,-99.3465,,
"Universidad Técnica Particular de Loja",,"http://www.utpl.edu.ec/",-3.9867,-79.1989,,
"Universidad de Guanajuato",,"http://www.ugto.mx/",21.0173,-101.253,,
"Universidad de Manila",,"http://www.udm.edu.ph/",14.5997,120.981,,
"Universidad de Medellín",,"http://www.udem.edu.co/",6.2311,-75.6115,,
"Universidad de Mendoza",,"http://www.um.edu.ar",-32.8917,-68.8611,,
"Universidad de San Carlos de Guatemala",,"http://www.usac.edu.gt",14.5829,-90.5529,,
"Universidad de Sonora",,"http://www.uson.mx/",29.083,-110.962,,
"Universidad de Sta. Isabel",,"http://www.usi.edu.ph/",13.629,123.189,,
"Universidad de la Sierra Juárez",,"http://www.unsij.edu.mx",17.3245,-96.4859,,
"Universidad de las Américas Puebla",,"http://www.udlap.mx/",19.0543,-98.2837,,
"Universidad del Noreste",,"http://www.une.edu.mx",22.2834,-97.8722,,
"Universidad del Pacífico (Peru)",,"http://www.up.edu.pe/",-12.0839,-77.0483,,
"Universidad del Sagrado Corazón",,"http://www.sagrado.edu",18.4425,-66.0586,,
"Universidad del Salvador",,"http://www.usal.edu.ar/",-34.5996,-58.3929,,
"Universidad del Valle de México",,"https://uvm.mx",19.2968,-99.1448,,
"Universidade Autónoma de Lisboa",,"https://autonoma.pt",38.7245,-9.14577,,
"Universidade Feevale",,"http://www.feevale.br",-29.6658,-51.1192,,
"Universidade de Santiago",,"https://www.us.edu.cv/usSITE/",15.0956,-23.6627,,
"Universidade de Taubaté",,"http://www.unitau.br/",-23.052,-45.939,,
"Universitas Siswa Bangsa Internasional",,"http://usbi.ac.id",-6.24781,106.845,,
"Universitat d'Andorra",,"http://www.uda.ad/",42.465,1.49056,,
"Universiteti i Prishtinës Faculty of Arts",,"http://arte.uni-pr.edu/",42.6594,21.1621,,
"Universiti Malaysia Perlis",,"http://www.unimap.edu.my",6.44722,100.244,,
"Universiti Malaysia Sabah",,"http://www.ums.edu.my/",6.03667,116.119,,
"Universiti Sains Malaysia",,"https://www.usm.my/",5.35694,100.301,,
"Universiti Sultan Zainal Abidin",,"http://www.unisza.edu.my",5.39556,103.083,,
"Universiti Teknikal Malaysia Melaka",,"http://www.utem.edu.my/",2.31389,102.318,,
"Universiti Teknologi Petronas",,"http://www.utp.edu.my/",4.38639,100.98,,
"Universities at Shady Grove",,"http://www.shadygrove.umd.edu",39.0939,-77.2016,,
"University B.D.T. College of Engineering",,"http://www.ubdtce.org",14.4517,75.9175,,
"University B.T. & Evening College",,"http://ubtec.org.in/",26.3322,89.4431,,
"University Canada West",,"https://ucanwest.ca",48.4374,-123.36,,
"University Center of Belo Horizonte",,"http://www.unibh.br/",-19.9717,-43.9633,,
"University Centre of the Westfjords",,"https://www.uw.is/",66.0689,-23.1261,,
"University City of Bogotá",,"http://bogota.unal.edu.co",4.63777,-74.084,,
"University City of the National University of San Marcos",,"http://www.ccsm-unmsm.edu.pe",12.0593,-77.088,,
"University College, Durham",,"http://www.dur.ac.uk/university.college",54.7755,-1.57616,,
"University College, Melbourne",,"http://www.unicol.unimelb.edu.au/%7Cunicol.unimelb.edu.au",-37.7917,144.959,,
"University College, Otago",,"http://www.otago.ac.nz/unicol/",-45.8655,170.516,,
"University College, Oxford",,"http://www.univ.ox.ac.uk/",51.7525,-1.252,,
"University College, Toronto",,"http://www.uc.utoronto.ca/",43.6622,-79.3958,,
"University College Birmingham",,"http://www.ucb.ac.uk",52.4817,-1.9062,,
"University College Cork",,"http://www.ucc.ie",51.893,-8.493,,
"University College Groningen",,"https://www.rug.nl/ucg/",53.2152,6.55467,,
"University College Roosevelt",,"http://www.ucr.nl/",51.4992,3.61083,,
"University College Thiruvananthapuram",,"http://www.universitycollege.ac.in",8.50194,76.9486,,
"University College Utrecht",,"https://www.uu.nl/ucu",52.0833,5.1478,,
"University College for Women, Koti",,"http://www.oucwkoti.ac.in/",17.3837,78.4864,,
"University College of Engineering, Kariavattom",,"http://www.ucek.in/",8.5644,76.8845,,
"University College of Engineering, Nagercoil",,"http://www.ucen.ac.in",8.16658,77.4121,,
"University College of Engineering, Pattukkottai",,"http://tau.edu.in/",10.312,79.3477,,
"University College of Engineering, Thodupuzha",,"http://ucet.ac.in/",9.84553,76.741,,
"University College of Engineering Tindivanam",,"http://www.aucet.in",12.2626,79.6569,,
"University College of Osteopathy",,"https://www.uco.ac.uk/",51.5001,-0.094524,,
"University College of Teacher Education Styria",,"https://www.phst.at/home/",47.0781,15.4492,,
"University College of the North",,"http://www.ucn.ca/",53.8197,-101.238,,
"University Hall (University of Hong Kong)",,"http://www.uhall.hku.hk/",22.2634,114.135,,
"University House, Australian National University",,"http://www.anu.edu.au/unihouse/welcome.htm",-35.284,149.118,,
"University Institute of Chemical Engineering and Technology, Panjab University",,"http://uicet.puchd.ac.in",30.7602,76.7695,,
"University Institute of Engineering & Technology, Maharshi Dayanand University",,"http://www.uietmdu.com",28.8909,76.5796,,
"University Institute of Engineering and Technology, Kanpur",,"http://uietkanpur.com",26.5013,80.2652,,
"University Institute of Engineering and Technology, Panjab University",,"http://www.uiet.puchd.ac.in/",30.7579,76.7681,,
"University Institute of Information Technology, Himachal Pradesh University",,"http://www.uiit.ac.in",31.1117,77.1401,,
"University Institute of Technology, Burdwan University",,"http://www.uit.buruniv.ac.in",23.257,87.846,,
"University Institute of Technology RGPV",,"http://www.uitrgpv.ac.in/",23.3121,77.3619,,
"University Law College, Bangalore University",,"http://ulcbangalore.com/",12.9737,77.5809,,
"University San Gregorio de Portoviejo",,"http://www.sangregorio.edu.ec",-1.06389,-80.4703,,
"University School of Biotechnology",,"http://ipu.ac.in/usbt/usbthome.htm",28.5943,77.0202,,
"University School of Chemical Technology",,"http://www.ipu.ac.in/usct/",28.5943,77.0194,,
"University School of Information, Communication and Technology",,"http://ipu.ac.in/usict/",28.595,77.0189,,
"University School of Law and Legal Studies",,"http://ggsipu.nic.in/uslaw/uslawindex.htm/",28.5947,77.0189,,
"University School of Management Studies",,"http://ipu.ac.in/usms/Home.htm",28.5961,77.0185,,
"University School of Management Studies",,"http://usms.co.in",28.5961,77.0185,,
"University UCINF",,"http://www.ucinf.cl/",-33.4285,-70.6103,,
"University Visvesvaraya College of Engineering",,"http://uvce.ac.in/",12.9761,77.5861,,
"University for Development Studies",,"http://www.uds.edu.gh/",9.3738,-0.8843,,
"University for Peace",,"http://www.upeace.org",9.91944,-84.2728,,
"University nuhelotʼįne thaiyotsʼį nistameyimâkanak Blue Quills",,"http://www.bluequills.ca/",54.0007,-111.37,,
"University of Aberdeen School of Law",,"http://abdn.ac.uk/law/",57.1653,-2.10111,,
"University of Aberdeen School of Medicine and Dentistry",,"http://www.abdn.ac.uk/smmsn/",57.1564,-2.1343,,
"University of Abomey-Calavi",,"http://www.uac.bj/",6.441,2.352,,
"University of Agricultural Sciences, Dharwad",,"http://www.uasd.edu",15.4891,74.9843,,
"University of Agricultural Sciences and Veterinary Medicine of Cluj-Napoca",,"http://www.usamvcluj.ro/",46.7606,23.5706,,
"University of Agriculture, Faisalabad",,"http://www.uaf.edu.pk",31.4339,73.0649,,
"University of Agronomic Sciences and Veterinary Medicine of Bucharest",,"http://www.usamv.ro/index.php/en/home-eng",44.4717,26.0704,,
"University of Akron College of Business Administration",,"http://www.uakron.edu/cba",41.0775,-81.5178,,
"University of Akureyri",,"http://www.unak.is/",65.6855,-18.1224,,
"University of Al-Qadisiyah",,"http://qu.edu.iq/",32.0006,44.8786,,
"University of Alabama at Birmingham School of Medicine",,"https://www.uab.edu/medicine/home/",33.5,-86.8075,,
"University of Alberta Augustana Campus",,"https://www.ualberta.ca/augustana",53.0116,-112.824,,
"University of Alberta Campus Saint-Jean",,"https://www.ualberta.ca/campus-saint-jean",53.5215,-113.469,,
"University of Alberta School of Business",,"https://ualberta.ca/business",53.5265,-113.518,,
"University of Almería",,"http://www.ual.es",36.8293,-2.40442,,
"University of America",,"http://www.uamerica.edu.co/",4.60189,-74.0618,,
"University of Antelope Valley",,"http://www.uav.edu/",34.6835,-118.135,,
"University of Antioquia",,"https://web.archive.org/web/20111220120709/http:/www.udea.edu.co/portal/page/portal/EnglishPortal/EnglishPortal",6.26742,-75.5684,,
"University of Antofagasta",,"http://www.uantof.cl/",-23.6691,-70.4056,,
"University of Antwerp",,"https://uantwerp.be/en",51.2228,4.41,,
"University of Applied Science and Technology",,"http://www.uast.ac.ir/",35.7018,51.3514,,
"University of Applied Sciences, Mainz",,"http://www.hs-mainz.de",49.9842,8.22833,,
"University of Applied Sciences, Worms",,"http://www.hs-worms.de/",49.6333,8.34444,,
"University of Applied Sciences Bingen",,"http://www.th-bingen.de",49.9533,7.92361,,
"University of Applied Sciences Kufstein",,"https://www.fh-kufstein.ac.at/eng",47.5839,12.1736,,
"University of Applied Sciences Landshut",,"http://www.haw-landshut.de/",48.5561,12.1975,,
"University of Applied Sciences Leiden",,"http://www.hsleiden.nl/english",52.1672,4.47167,,
"University of Applied Sciences Offenburg",,"http://www.hs-offenburg.de",48.4589,7.94278,,
"University of Applied Sciences Ravensburg-Weingarten",,"https://www.rwu.de/en",47.8142,9.65306,,
"University of Architecture, Civil Engineering and Geodesy",,"http://uacg.bg",42.6831,23.3314,,
"University of Arizona College of Medicine – Tucson",,"https://medicine.arizona.edu",32.2407,-110.946,,
"University of Arizona College of Pharmacy",,"http://www.pharmacy.arizona.edu",32.2384,-110.945,,
"University of Arkansas Community College at Batesville",,"http://www.uaccb.edu",35.793,-91.6151,,
"University of Arkansas Community College at Morrilton",,"http://www.uaccm.edu",35.1722,-92.7295,,
"University of Arkansas Hope-Texarkana",,"http://www.uaht.edu",33.6418,-93.5963,,
"University of Arkansas Rich Mountain",,"http://www.uarichmountain.edu",34.5913,-94.2202,,
"University of Arkansas for Medical Sciences",,"http://www.uams.edu",34.7494,-92.32,,
"University of Arkansas – Pulaski Technical College",,"http://www.uaptc.edu/",34.7829,-92.2999,,
"University of Arts in Belgrade",,"http://www.arts.bg.ac.rs",44.8181,20.4508,,
"University of Aruba",,"http://www.ua.aw/%7Cua.aw",12.5234,-70.0342,,
"University of Arusha",,"http://www.uoa.ac.tz/%7CUniversity",-3.31806,36.8708,,
"University of Asia and the Pacific",,"http://www.uap.asia/",14.5803,121.061,,
"University of Atacama",,"http://www.uda.cl/",-27.3567,-70.3525,,
"University of Auckland",,"http://www.auckland.ac.nz/",-36.85,174.77,,
"University of Auvergne",,"http://www.u-clermont1.fr/",45.7706,3.08861,,
"University of Aveiro",,"https://www.ua.pt/%7C2=www.ua.pt",40.6303,-8.6575,,
"University of Bagamoyo",,"http://www.uob.ac.tz/%7CUniversity",-6.75583,39.2453,,
"University of Balochistan",,"http://www.uob.edu.pk",30.166,66.99,,
"University of Bangui",,"http://www.univ-bangui.org",4.37564,18.5634,,
"University of Banja Luka",,"http://unibl.org",44.775,17.2117,,
"University of Barcelona",,"http://www.ub.edu/web/ub/en/index.html%3F%7C2=www.ub.edu",41.3867,2.16389,,
"University of Barisal",,"http://www.barisaluniv.edu.bd/",22.6599,90.362,,
"University of Baroda Faculty of Fine Arts",,"http://www.msubaroda.ac.in/",22.3119,73.1867,,
"University of Basel",,"http://www.unibas.ch/en.html%7C2=www.unibas.ch",47.5586,7.58333,,
"University of Basilicata",,"http://www.unibas.it",40.6471,15.8085,,
"University of Batangas",,"http://www.ub.edu.ph/",13.7639,121.06,,
"University of Bayreuth",,"https://www.uni-bayreuth.de/",49.9289,11.5858,,
"University of Beira Interior",,"http://www.ubi.pt/en/%7C2=www.ubi.pt",40.2774,-7.50887,,
"University of Belgrade",,"http://www.bg.ac.rs",44.8184,20.4574,,
"University of Belgrade Faculty of Architecture",,"http://www.arh.bg.ac.rs",44.8057,20.4762,,
"University of Belgrade Faculty of Economics",,"https://web.archive.org/web/20100418150940/http:/www.ekof.bg.ac.rs/visitors/index.php",44.8117,20.4551,,
"University of Belgrade Faculty of Law",,"http://www.ius.bg.ac.rs/eng",44.8072,20.4721,,
"University of Belgrade Faculty of Medicine",,"http://www.mfub.bg.ac.rs",44.7975,20.4611,,
"University of Belgrade Faculty of Organizational Sciences",,"http://www.fon.bg.ac.rs",44.7726,20.4752,,
"University of Belgrade Faculty of Philology",,"http://www.fil.bg.ac.rs/eng%7Cfil.bg.ac.rs",44.819,20.4571,,
"University of Belgrade Faculty of Security Studies",,"http://www.fb.bg.ac.rs/index.php%3Foption=com_content&task=section&id=11&Itemid=1256",44.7926,20.5034,,
"University of Belgrano",,"http://www.ub.edu.ar/",-34.5641,-58.4437,,
"University of Belize",,"http://www.ub.edu.bz",17.2436,-88.7602,,
"University of Bengkulu",,"https://www.unib.ac.id/",-3.7598,102.272,,
"University of Benin (Nigeria)",,"http://www.uniben.edu",6.3337,5.60015,,
"University of Bern",,"http://www.unibe.ch/eng/",46.9505,7.43811,,
"University of Birjand",,"http://www.birjand.ac.ir/",32.8767,59.2181,,
"University of Bologna",,"http://www.unibo.it/en%7C2=www.unibo.it",44.4939,11.3428,,
"University of Bonab",,"http://www.bonabu.ac.ir/",37.3689,46.0503,,
"University of Bonn",,"https://www.uni-bonn.de/",50.7339,7.10222,,
"University of Bordeaux 1",,"http://www.u-bordeaux1.fr/",44.8069,-0.6,,
"University of Brasília",,"http://www.unb.br/",-15.7614,-47.8664,,
"University of Brawijaya",,"http://www.ub.ac.id/",-7.95583,112.616,,
"University of Bremen",,"https://www.uni-bremen.de/en/%7C2=www.uni-bremen.de",53.1086,8.85361,,
"University of Bremen",,"http://www.uni-bremen.de/en.html%7C2=www.uni-bremen.de",53.1086,8.85361,,
"University of British Columbia (Okanagan Campus)",,"https://ok.ubc.ca/",49.9396,-119.396,,
"University of Bucharest",,"https://unibuc.ro/%3Flang=en",44.4356,26.1011,,
"University of Buenos Aires",,"http://www.uba.ar/",-34.5997,-58.3731,,
"University of Buner",,"https://ubuner.edu.pk",34.4789,72.4898,,
"University of Burdwan",,"http://www.buruniv.ac.in/",23.25,87.85,,
"University of Burgos",,"http://ubu.es",42.3411,-3.7283,,
"University of Burgundy",,"http://en.u-bourgogne.fr/",47.3125,5.07083,,
"University of Cagayan Valley",,"http://www.ucv.edu.ph",18.4431,121.811,,
"University of Cagliari",,"http://www.unica.it/",39.217,9.115,,
"University of Calcutta",,"http://www.caluniv.ac.in/",22.5764,88.3619,,
"University of Caldas",,"http://www.ucaldas.edu.co/",5.05611,-75.4928,,
"University of Calicut",,"https://uoc.ac.in",11.1338,75.894,,
"University of California, Irvine School of Education",,"http://www.education.uci.edu",33.6471,-117.836,,
"University of Caloocan City",,"http://ucc-caloocan.edu.ph/",14.6576,120.973,,
"University of Campinas",,"http://www.unicamp.br/unicamp/english/%7Cwww.unicamp.br",-22.8172,-47.0694,,
"University of Campinas School of Mechanical Engineering",,"http://www.fem.unicamp.br/",-22.8192,-47.0656,,
"University of Canterbury",,"https://www.canterbury.ac.nz/",-43.5233,172.582,,
"University of Cape Coast",,"https://www.ucc.edu.gh/",5.1036,-1.2825,,
"University of Carabobo",,"http://www.uc.edu.ve",10.2733,-68.0031,,
"University of Catania",,"http://www.unict.it/",37.5036,15.0867,,
"University of Cauca",,"http://www.unicauca.edu.co",2.44083,-76.6047,,
"University of Central Florida College of Arts and Humanities",,"http://www.cah.ucf.edu/",28.6044,-81.2025,,
"University of Central Florida College of Business Administration",,"http://www.bus.ucf.edu/",28.6009,-81.1994,,
"University of Central Florida College of Dental Medicine",,"http://med.ucf.edu/",28.3876,-81.2666,,
"University of Central Florida College of Education and Human Performance",,"http://education.ucf.edu/",28.6002,-81.204,,
"University of Central Florida College of Engineering and Computer Science",,"http://www.cecs.ucf.edu/",28.6018,-81.1985,,
"University of Central Florida College of Graduate Studies",,"http://www.graduate.ucf.edu/",28.5991,-81.2023,,
"University of Central Florida College of Medicine",,"https://med.ucf.edu/",28.3672,-81.2803,,
"University of Central Florida College of Nursing",,"http://www.nursing.ucf.edu/",28.5879,-81.1994,,
"University of Central Florida College of Optics and Photonics",,"http://www.townes.ucf.edu/",28.6012,-81.1972,,
"University of Central Florida College of Optics and Photonics",,"http://www.creol.ucf.edu/",28.6012,-81.1972,,
"University of Central Florida College of Sciences",,"http://www.cos.ucf.edu/",28.6009,-81.2002,,
"University of Central Florida College of Undergraduate Studies",,"http://www.undergraduatestudies.ucf.edu",28.6044,-81.2025,,
"University of Central Florida student housing",,"http://www.housing.ucf.edu/",28.5975,-81.1984,,
"University of Central Lancashire",,"http://www.uclan.ac.uk",53.763,-2.7074,,
"University of Central Punjab",,"http://ucp.edu.pk",31.4469,74.2682,,
"University of Chakwal",,"http://uoc.edu.pk",32.93,72.85,,
"University of Chittagong",,"http://www.cu.ac.bd",22.4699,91.7904,,
"University of Cincinnati Clermont College",,"https://ucclermont.edu/",39.0806,-84.1956,,
"University of Cincinnati College of Applied Science",,"http://www.uc.edu/cas",39.1217,-84.4844,,
"University of Cincinnati College of Design, Architecture, Art, and Planning",,"http://www.daap.uc.edu",39.1345,-84.5187,,
"University of Cincinnati College of Engineering and Applied Science",,"https://www.ceas.uc.edu",39.1333,-84.5167,,
"University of Cincinnati College of Law",,"http://www.law.uc.edu",39.1291,-84.5201,,
"University of Cincinnati – College-Conservatory of Music",,"https://ccm.uc.edu/",39.1297,-84.5182,,
"University of Coimbra",,"http://www.uc.pt/en%7C2=uc.pt",40.2074,-8.4265,,
"University of Colima",,"http://www.ucol.mx",19.2486,-103.699,,
"University of Cologne",,"http://www.portal.uni-koeln.de/uoc_home.html%3F&L=1",50.9281,6.92861,,
"University of Colorado Boulder Computer Science Department",,"http://www.colorado.edu/cs/",40.0075,-105.263,,
"University of Colorado School of Dental Medicine",,"http://www.ucdenver.edu/academics/colleges/dentalmedicine/Pages/DentalMedicine.aspx",39.7441,-104.836,,
"University of Colorado School of Medicine",,"https://medschool.cuanschutz.edu",39.745,-104.838,,
"University of Computer Studies (Maubin)",,"https://ucsmub.edu.mm/",16.7411,95.6514,,
"University of Computer Studies (Pakokku)",,"http://www.ucspkku.edu.mm",21.3327,94.9858,,
"University of Concepción",,"http://www.udec.cl",-36.8283,-73.0372,,
"University of Connecticut School of Business",,"http://www.business.uconn.edu",41.8061,-72.2516,,
"University of Copenhagen",,"http://www.ku.dk/english%7C2=www.ku.dk",55.6797,12.5725,,
"University of Copenhagen Faculty of Health and Medical Sciences",,"http://healthsciences.ku.dk/",55.6928,12.5642,,
"University of Corsica Pasquale Paoli",,"http://www.univ-corse.fr",42.2992,9.15333,,
"University of Costa Rica",,"http://www.ucr.ac.cr",9.93583,-84.0506,,
"University of Craiova",,"http://www.ucv.ro/",44.3192,23.8008,,
"University of Cumbria",,"https://www.cumbria.ac.uk",54.8908,-2.92222,,
"University of Cyprus",,"http://www.ucy.ac.cy",35.1597,33.3778,,
"University of Córdoba (Colombia)",,"http://www.unicordoba.edu.co/",8.78778,-75.8578,,
"University of Dar es Salaam",,"http://www.udsm.ac.tz/%7Cwww.udsm.ac.tz",-6.78056,39.2033,,
"University of Daugavpils",,"http://du.lv/en",55.8689,26.5156,,
"University of Defence",,"http://www.uo.mod.gov.rs/",44.7698,20.4698,,
"University of Dental Medicine, Yangon",,"http://www.udmyangon-edu.com",16.8342,96.209,,
"University of Detroit Mercy School of Dentistry",,"http://dental.udmercy.edu/",42.3379,-83.0864,,
"University of Development Alternative",,"http://www.uoda.edu.bd",23.7523,90.3694,,
"University of Divinity",,"http://www.divinity.edu.au/",-37.8056,145.037,,
"University of Diyala",,"http://www.uodiyala.edu.iq/",33.6789,44.5983,,
"University of Dodoma",,"http://www.udom.ac.tz/%7CUniversity",-6.21472,35.8247,,
"University of Donja Gorica",,"http://www.udg.edu.me",42.4175,19.2028,,
"University of Duisburg-Essen",,"https://www.uni-due.de/en/index.php%7C2=www.uni-due.de",51.4639,7.00611,,
"University of Dunaújváros",,"http://www.uniduna.hu/english/about-us",46.9606,18.9339,,
"University of Dundee School of Medicine",,"https://www.dundee.ac.uk/medicine/",56.4636,-3.04116,,
"University of East London",,"http://www.uel.ac.uk",51.5078,0.0636111,,
"University of East Sarajevo",,"http://www.ues.rs.ba",43.8237,18.3747,,
"University of Eastern Finland",,"https://www.uef.fi/en/etusivu",62.8925,27.6783,,
"University of Economics, Prague",,"http://www.vse.cz/english/",50.0841,14.4411,,
"University of Economics Ho Chi Minh City",,"http://www.ueh.edu.vn/",10.784,106.694,,
"University of Edinburgh College of Science and Engineering",,"http://www.ed.ac.uk/science-engineering",55.9228,-3.175,,
"University of Edinburgh Medical School",,"http://www.ed.ac.uk/medicine-vet-medicine/edinburgh-medical-school",55.9221,-3.13663,,
"Lowell Technological Institute",,,42.6539,-71.3257,,
"Loyola College (Montreal)",,,45.458,-73.639,,
"Luis Espinal Higher Institute of Philosophy and Humanities",,,-17.3822,-66.1562,,
"Lutheran Theological Seminary, Saskatoon",,,52.1372,-106.638,,
"Lutheran University of Applied Sciences Nuremberg",,,49.4508,11.0603,,
"Lyon College",,,35.7776,-91.6258,,
"M.S.S. Wakf Board College",,,9.9315,78.1427,,
"MAPS College",,,4.17376,73.516,,
"MATS University",,,21.2483,81.9977,,
"MCKV Institute of Engineering",,,22.5833,88.3833,,
"MES College of Engineering",,,10.8302,76.0234,,
"MES Institute of Technology and Management",,,8.86806,76.7092,,
"MNS University of Agriculture",,,30.1652,71.4969,,
"MSU Graduate School of Business Administration",,,55.706,37.5194,,
"MVJ College of Engineering",,,12.9839,77.762,,
"M Abdur Rahim Medical College and Hospital",,,25.6106,88.6551,,
"Macau University of Science and Technology",,,22.1524,113.565,,
"Machakos Institute of Technology",,,-1.53067,37.2624,,
"Mackinac College",,,45.8514,-84.6054,,
"Macleay College",,,-33.8839,151.21,,
"Macon State College",,,32.8072,-83.7322,,
"Madda Walabu University",,,7.143,39.999,,
"Madeira Interactive Technologies Institute",,,32.6589,-16.9244,,
"Madhubani Medical College and Hospital",,,26.3068,86.0616,,
"Madinatul Uloom Bagbari",,,24.7878,92.4269,,
"Magna Carta College",,,51.7308,-1.20566,,
"Magway University",,,20.1361,94.935,,
"Mahamaya College of Agricultural Engineering and Technology",,,26.4597,82.4925,,
"Maharana Pratap Horticultural University",,,29.8351,76.8785,,
"Maharashtra Institute of Medical Education and Research",,,18.7355,73.6744,,
"Maharishi Valmiki Sanskrit University",,,29.7801,76.4968,,
"Mahatma Gandhi College, Lakshadweep",,,10.8116,73.6742,,
"Mahatma Jagjeevan Sahab Mahavidyalaya",,,27.1447,80.9139,,
"Mahbub College High School",,,17.4401,78.4951,,
"Mahendra Mahila College",,,26.47,84.4408,,
"Makerere University School of Medicine",,,0.338056,32.5772,,
"Malaysia University of Science & Technology",,,3.1054,101.592,,
"Carysfort College",,,53.2962,-6.18464,,
"Casimirianum, Neustadt",,,49.3535,8.13431,,
"UTHealth School of Public Health",,,29.7048,-95.3982,,
"Udon Thani Rajabhat University",,,17.3975,102.794,,
"Ueno Gakuen Junior College",,,35.7151,139.782,,
"Uganda Christian University School of Medicine",,,0.313045,32.5581,,
"Uganda Junior Staff College",,,0.45,33.205,,
"Uganda National Entrepreneurship Development Institute",,,0.326389,32.6,,
"Uganda Specialized Nursing University",,,0.339722,32.5806,,
"UiTM Faculty of Civil Engineering",,,3.07144,101.496,,
"Ulsan College",,,35.4958,129.416,,
"Uluberia College",,,22.4694,88.1068,,
"UniPoliSi",,,45.8337,9.0346,,
"Unidad Académica Campesina-Carmen Pampa",,,-16.2582,-67.6917,,
"Uniformed Services University of the Health Sciences",,,39.0012,-77.0859,,
"Unitec Institute of Technology",,,-36.8778,174.708,,
"United African University of Tanzania",,,-8.91083,33.4583,,
"United Theological Seminary",,,39.8144,-84.2803,,
"Unity University",,,9.00341,38.8032,,
"Universidad Autónoma Gabriel René Moreno",,,-17.6967,-63.1458,,
"Universidad Autónoma de Durango",,,24.048,-104.632,,
"Universidad Autónoma de Occidente",,,3.35389,-76.5228,,
"Universidad Autónoma del Estado de Morelos",,,18.9826,-99.2346,,
"Universidad Latinoamericana",,,19.3613,-99.1773,,
"Universidad Politécnica de Baja California",,,32.6256,-115.377,,
"Universidade Amílcar Cabral",,,11.8559,-15.611,,
"Universidade do Extremo Sul Catarinense",,,-28.7013,-49.4084,,
"Universitatea Alternativă",,,44.4485,26.1041,,
"Universiti Brunei Darussalam",,,4.97646,114.895,,
"Universiti Malaysia Kelantan",,,6.16444,102.283,,
"Universiti Malaysia Pahang",,,3.54306,103.436,,
"Universiti Malaysia Terengganu",,,5.40528,103.088,,
"Universiti Putra Malaysia",,,2.99917,101.708,,
"Universiti Teknologi MARA",,,3.06969,101.504,,
"Universiti Tunku Abdul Rahman",,,4.33747,101.145,,
"Universiti Utara Malaysia",,,6.45778,100.506,,
"University Arts and Science College, Warangal",,,17.993,79.546,,
"University College, Mangalore",,,12.8659,74.8412,,
"University College Dublin",,,53.3083,-6.22222,,
"University College Maastricht",,,50.8443,5.6886,,
"University Park, Pennsylvania",,,40.8067,-77.8803,,
"University at Buffalo School of Management",,,42.9998,-78.787,,
"University of A Coruña",,,43.3506,-8.41595,,
"University of Akron School of Music",,,41.0787,-81.515,,
"University of Alaska Southeast",,,58.385,-134.639,,
"University of Alberta Faculty of Pharmacy and Pharmaceutical Sciences",,,53.5224,-113.525,,
"University of Albuquerque",,,35.1303,-106.698,,
"University of Alicante",,,38.3846,-0.513147,,
"University of Altamura",,,40.8271,16.553,,
"University of Amsterdam",,,52.3683,4.89028,,
"University of Anbar",,,33.4027,43.2623,,
"University of Applied Sciences Technikum Wien",,,48.2394,16.3778,,
"University of Applied Sciences Wedel",,,53.5781,9.72889,,
"University of Arkansas College of Education & Health Professions",,,36.0696,-94.17,,
"University of Arkansas College of Engineering",,,36.0671,-94.1714,,
"University of Arkansas Fay Jones School of Architecture and Design",,,36.0687,-94.1727,,
"University of Arkansas at Pine Bluff",,,34.2423,-92.0203,,
"University of Asmara",,,15.3425,38.9275,,
"University of Baguio",,,16.4154,120.598,,
"University of Bahrain",,,26.0522,50.5084,,
"University of Ballarat",,,-37.626,143.891,,
"University of Bangka Belitung",,,-2.06994,106.077,,
"University of Bath School of Management",,,51.3767,-2.32583,,
"University of Belgrade School of Electrical Engineering",,,44.8057,20.4762,,
"University of Birmingham Medical School",,,52.452,-1.93814,,
"University of Botswana School of Medicine",,,-24.6644,25.9303,,
"University of Bradford School of Management",,,53.816,-1.777,,
"University of Buckingham",,,51.9958,-0.991944,,
"University of Burundi",,,-3.37889,29.3844,,
"University of Business in Prague",,,50.0806,14.4199,,
"University of Calgary Faculty of Law",,,51.0771,-114.129,,
"University of Calgary Faculty of Veterinary Medicine",,,51.0664,-114.136,,
"University of California, Berkeley School of Information",,,37.8713,-122.259,,
"University of Canberra",,,-35.2389,149.087,,
"University of Cape Town Graduate School of Business",,,-33.9073,18.416,,
"University of Central Florida College of Health and Public Affairs",,,28.6029,-81.1986,,
"University of Cervera",,,41.6706,1.27429,,
"University of Chicago School of Social Service Administration",,,41.7856,-87.6017,,
"University of Community Health, Magway",,,20.1926,94.9416,,
"University of Computer Studies, Mandalay",,,21.9667,96.1833,,
"University of Connecticut School of Dental Medicine",,,41.7308,-72.7903,,
"University of Connecticut School of Engineering",,,41.8081,-72.2546,,
"University of Connecticut School of Medicine",,,41.7308,-72.7903,,
"University of Copenhagen Faculty of Law",,,55.6793,12.5699,,
"University of Cuenca",,,-2.90056,-79.0089,,
"University of Cyberjaya",,,2.92983,101.655,,
"University of Delhi",,,28.69,77.21,,
"University of Dental Medicine, Mandalay",,,21.9447,96.1128,,
"University of Economy and Enterprise",,,40.9361,72.9689,,
"Maine Maritime Academy",,"https://mainemaritime.edu",,,"1.81E7",
"University of Brighton",,"http://www.brighton.ac.uk",,,"60000.0",
"University of Chester",,"https://www1.chester.ac.uk/",,,"395000.0",
"Lucas College and Graduate School of Business",,,,,"9.99E7",
"Maakhir University",,,,,"37925.0",
"University System of Ohio",,,,,"4.65E9",
"University of Alabama System",,,,,"1.52E9",
"University of California, Santa Barbara",,,,,"4.038E8",
"University of Colorado Denver",,,,,"5.93E8",
"ACT College",,"https://web.archive.org/web/20080512024123/http:/www.actcollege.edu/",,,,
"AIMST University",,"http://www.aimst.edu.my/",,,,
"ALHOSN University",,"http://www.alhosnu.ae/",,,,
"ANU College of Engineering and Computer Science",,"http://cecs.anu.edu.au/",,,,
"Loyola College of Education, Chennai",,"http://www.loyolacollegeofeducation.in/",,,,
"Loyola Institute of Technology and Management",,"http://www.litam.ac.in",,,,
"Loyola Schools",,"http://www.ateneo.edu/ls",,,,
"Lucknow Institute of Technology",,"http://www.litlucknow.ac.in/",,,,
"Luis Amigó Catholic University",,"http://www.funlam.edu.co/",,,,
"Luiz de Queiroz College of Agriculture, University of São Paulo",,"http://www.esalq.usp.br/english/",,,,
"Lumbini Buddhist University",,"http://www.lbuniversity.edu.np/",,,,
"Luther Rice College & Seminary",,"http://www.lutherrice.edu",,,,
"Lyceum of the Philippines University",,"http://www.lpu.edu.ph/",,,,
"Lyceum of the Philippines University–Batangas",,"http://www.lpubatangas.edu.ph/",,,,
"Lyceum of the Philippines University–Laguna",,"http://www.lpulaguna.edu.ph/",,,,
"Lúrio University",,"http://www.unilurio.ac.mz/",,,,
"M.B.M. Engineering College",,"http://www.mbm.ac.in/",,,,
"MCL E.T. Yuchengco College of Business at Laguna",,"http://www.mcl.edu.ph",,,,
"MEF University",,"http://www.mef.edu.tr/en",,,,
"MGM Medical College and Hospital, Aurangabad",,"https://www.mgmmcha.org",,,,
"MIC, St. Patrick's Campus, Thurles",,"https://www.mic.ul.ie/school-education-post-primary",,,,
"MINT College",,"http://www.mintcollege.com/%23mintcollege",,,,
"MIP Politecnico di Milano",,"http://www.mip.polimi.it/",,,,
"MIT Academy of Engineering",,"http://www.mitaoe.ac.in",,,,
"MLR Institute of Technology",,"http://mlrinstitutions.ac.in/",,,,
"MLR institute of Pharmacy",,"http://www.mlrip.ac.in",,,,
"MSU Faculty of Biology",,"http://www.bio.msu.ru",,,,
"MUW Alumnae Association",,"http://www.msfirstalumnae.com/",,,,
"MVD Academy of Kyrgyzstan",,"http://academy-mvd.kg",,,,
"Ma'din",,"https://www.madin.edu.in/",,,,
"Maastricht School of Translation and Interpreting",,"http://www.vacmaastricht.nl",,,,
"Macquarie University Faculty of Arts",,"http://www.arts.mq.edu.au/",,,,
"Macquarie University Faculty of Human Sciences",,"https://www.mq.edu.au/about/about-the-university/faculties-and-departments/faculty-of-human-sciences/",,,,
"Macquarie University Faculty of Science and Engineering",,"http://science.mq.edu.au/",,,,
"Madhabdev University",,"https://www.madhabdevuniversity.org.in/",,,,
"Madonna University",,"http://www.madonna.edu/",,,,
"Madrasa Sirajul Uloom Hilali Sarai Sambhal",,"http://madrasasirajululoom.com",,,,
"Madurai Kamaraj University",,"http://www.mkudde.org",,,,
"Madurai Kamaraj University",,"http://www.mkuniversity.org",,,,
"Magadh University",,"http://www.magadhuniversity.ac.in/",,,,
"Mahadevappa Rampure Medical College",,"http://mrmc.hkes.edu.in",,,,
"Mahakal Institute of Technology",,"https://web.archive.org/web/20120501202753/http:/mit.mitujjain.ac.in/",,,,
"Mahakal Institute of Technology",,"https://web.archive.org/web/20120501202753/http://mit.mitujjain.ac.in/",,,,
"Mahapurusha Srimanta Sankaradeva Viswavidyalaya",,"http://www.mssv.co.in",,,,
"Maharaja Agrasen Institute of Management and Technology",,"http://www.maimt.com",,,,
"Maharaja College, Arrah",,"http://www.maharajacollege.ac.in/pmessage.htm",,,,
"Maharaja Ganga Singh University",,"http://www.mgsubikaner.ac.in/",,,,
"Maharaja Institute of Technology Mysore",,"http://mitmysore.in",,,,
"Maharaja Krishnakumarsinhji Bhavnagar University",,"https://www.mkbhavuni.edu.in/mkbhavuniweb/",,,,
"Maharaja Surajmal Brij University",,"http://msbrijuniversity.ac.in/",,,,
"Maharaja Surajmal Brij University",,"http://msbrijuniversity.ac.in//",,,,
"Maharashtra Animal and Fishery Sciences University",,"http://www.mafsu.in/",,,,
"Maharashtra National Law University, Aurangabad",,"https://www.mnlua.ac.in/",,,,
"Maharashtra National Law University, Mumbai",,"http://mnlumumbai.edu.in/",,,,
"Maharashtra National Law University, Nagpur",,"http://nlunagpur.ac.in/",,,,
"Maharishi Arvind Institute of Engineering and Technology",,"http://www.maietindia.org/",,,,
"Maharshi Dayanand Saraswati University",,"http://www.mdsuajmer.ac.in",,,,
"Mahatma Gandhi Antarrashtriya Hindi Vishwavidyalaya",,"http://hindivishwa.org",,,,
"Mahatma Gandhi Central University",,"http://www.mgcub.ac.in",,,,
"Mahatma Gandhi Institute of Technology",,"http://www.mgit.ac.in",,,,
"Mahatma Gandhi Kashi Vidyapith",,"http://www.mgkvp.ac.in/",,,,
"Mahatma Gandhi University, Kerala",,"http://www.mgu.ac.in",,,,
"Mahatma Gandhi University of Medical Sciences & Technology",,"http://hwww.mgumst.org",,,,
"Mahmoud el Materi University",,"http://www.umm-tunisie.com/",,,,
"Maine Media Workshops",,"http://www.mainemedia.edu",,,,
"Major Seminary of Bogotá",,"http://seminariobogota.arquibogota.org.co/es/",,,,
"Malalay University",,"http://www.Malalay.edu.af/",,,,
"Malayan Colleges Laguna",,"http://www.mcl.edu.ph/",,,,
"Malaysian Buddhist Institute",,"http://www.mbi.edu.my",,,,
"Carolina University of Theology",,"http://www.cutofnova.org",,,,
"Carr Center for Human Rights Policy",,"http://www.carrcenter.hks.harvard.edu",,,,
"Caskey School of Divinity",,"http://divinity.lacollege.edu/",,,,
"Constitution Unit",,"https://www.ucl.ac.uk/constitution-unit",,,,
"Continental Group of Institutes",,"http://continental.ac.in/,",,,,
"Cooperative University of Colombia",,"http://www.ucc.edu.co/",,,,
"Copenhagen Business Academy",,"http://www.cphbusiness.dk/ENGLISH/",,,,
"Copenhagen North Business College",,"https://www.knord.dk/in-english.html",,,,
"Copenhagen Technical College",,"https://www.kts.dk/inenglish.asp",,,,
"Copperstone University",,"http://www.copperstone.ac.zm/index.php",,,,
"Cornell University Department of History",,"http://www.arts.cornell.edu/history/",,,,
"Corozal Junior College",,"http://www.cjc.edu.bz/",,,,
"UWSP Albertson Center for Learning Resources",,"http://library.uwsp.edu",,,,
"Udit Narayan Post Graduate College",,"http://www.unpgcollege.com/",,,,
"Ufa State Institute of Arts",,"http://en.ufaart.ru/",,,,
"Ukrainian Academy of Printing",,"http://party.civicua.org/study/institut/0000380.htm",,,,
"Ulyanovsk State University",,"http://english.ulsu.ru",,,,
"Underwood International College",,"http://uic.yonsei.ac.kr/",,,,
"Unilasalle",,"https://international.unilasalle.fr",,,,
"Union College (Nebraska)",,"http://www.ucollege.edu/",,,,
"Union Graduate College",,"http://www.clarkson.edu/",,,,
"United States Coast Guard Auxiliary University Programs",,"http://www.cgauxedu.us",,,,
"United States University",,"http://www.usuniversity.edu",,,,
"United Theological Seminary of the Twin Cities",,"http://www.unitedseminary.edu",,,,
"Uniting College for Leadership and Theology",,"http://unitingcollege.org.au/",,,,
"Univates",,"http://www.univates.br/",,,,
"Universal Business School",,"http://www.universalbusinessschool.com",,,,
"Universal College of Learning",,"http://www.ucol.ac.nz/",,,,
"Universidad Alejandro de Humboldt",,"http://www.unihumboldt.edu.ve",,,,
"Universidad Anáhuac Cancún",,"http://www.anahuaccancun.edu.mx",,,,
"Universidad Autónoma de La Laguna",,"http://ual.mx",,,,
"Universidad Autónoma de Santo Domingo",,"http://www.uasd.edu.do",,,,
"Universidad Azteca",,"http://www.universidadazteca.edu.mx",,,,
"Universidad CEU San Pablo",,"http://www.uspceu.com",,,,
"Universidad Católica San Antonio de Murcia",,"http://www.ucam.edu/",,,,
"Universidad Centroccidental Lisandro Alvarado",,"http://www.ucla.edu.ve",,,,
"Universidad Europea de Canarias",,"http://universidadeuropeadecanarias.es/",,,,
"Universidad Juárez del Estado de Durango",,"http://www.ujed.mx",,,,
"Universidad Mariano Gálvez",,"http://umg.edu.gt/",,,,
"Universidad Nuestra Señora de La Paz",,"http://www.unslp.edu.bo/",,,,
"Universidad Popular de la Chontalpa",,"http://www.upch.edu.mx/",,,,
"Universidad Tecnológica de México",,"http://www.unitec.mx",,,,
"Universidad Tecnológica de Santiago",,"http://www.utesa.edu",,,,
"Universidad Vasco de Quiroga",,"http://uvaq.mx",,,,
"Universidad Veracruzana",,"http://www.uv.mx",,,,
"Universidad de Montevideo",,"http://www.um.edu.uy/",,,,
"Universidad de Zamboanga",,"http://www.uz.edu.ph",,,,
"Universidad del Desarrollo",,"http://www.udd.cl/",,,,
"Universidade Estadual da Região Tocantina do Maranhão",,"http://www.uemasul.edu.br",,,,
"Universidade Norte do Paraná",,"http://www.unopar.br",,,,
"Universidade Veiga de Almeida",,"https://www.uva.br/",,,,
"Universitas Nasional",,"http://www.unas.ac.id/",,,,
"Universiti Tenaga Nasional",,"http://www.uniten.edu.my/",,,,
"Universiti Tun Abdul Razak",,"http://www.unirazak.edu.my",,,,
"University American College Skopje",,"http://www.uacs.edu.mk",,,,
"University College (University of Tasmania)",,"https://www.utas.edu.au/college",,,,
"University College Capital",,"http://www.ucc.dk",,,,
"University College South Denmark",,"http://ucsyd.dk",,,,
"University College of Engineering, Arni",,"http://www.aucearni.in",,,,
"University College of Engineering, Kakatiya University",,"http://kuce.ac.in/",,,,
"University College of Engineering, Kanchipuram",,"http://www.aucek.in",,,,
"University College of Engineering, Panruti",,"http://www.ucep.edu.in",,,,
"University College of Northern Denmark",,"http://www.ucn.dk/",,,,
"University College of Pharmacy",,"http://pucp.edu.pk",,,,
"University Džemal Bijedić of Mostar",,"http://www.unmo.ba",,,,
"University Engineering College, Kota",,"http://www.rtu.ac.in/UCE.html",,,,
"University Medical and Dental College Faisalabad",,"http://www.umdc.tuf.edu.pk",,,,
"University Sinergija",,"http://www.sinergija.edu.ba/",,,,
"University at Buffalo College of Arts and Sciences",,"https://arts-sciences.buffalo.edu/",,,,
"University for Business and Technology",,"http://www.ubt-uni.net/",,,,
"University for the Creative Arts",,"http://www.uca.ac.uk",,,,
"University of Abou Bekr Belkaïd",,"https://www.univ-tlemcen.dz/",,,,
"University of Abuja",,"http://www.uniabuja.edu.ng/",,,,
"University of Abuja",,"http://www.uniabuja.edu.ng",,,,
"University of Aden",,"http://www.aden-univ.net/",,,,
"University of Adrar",,"https://www.univ-Adrar.dz",,,,
"University of Agriculture, Dera Ismail Khan",,"http://www.uad.edu.pk",,,,
"University of Agriculture, Makurdi",,"http://www.uam.edu.ng/",,,,
"University of Alaska system",,"http://www.alaska.edu",,,,
"University of Arkansas System",,"http://www.uasys.edu/",,,,
"University of Atlántico",,"http://www.uniatlantico.edu.co/",,,,
"University of Auckland Faculty of Arts",,"http://www.arts.auckland.ac.nz/",,,,
"University of Auckland Faculty of Engineering",,"http://www.engineering.auckland.ac.nz/uoa/",,,,
"University of Auckland Faculty of Science",,"http://www.science.auckland.ac.nz",,,,
"University of Baltistan",,"http://www.uobs.edu.pk/",,,,
"University of Bamberg",,"https://www.uni-bamberg.de/en/",,,,
"University of Benghazi",,"http://uob.edu.ly/;",,,,
"University of Bihać",,"http://www.unbi.ba",,,,
"University of Bojnord",,"http://www.ub.ac.ir/",,,,
"University of Borås",,"http://www.hb.se/en/",,,,
"University of Boyacá",,"http://www.uniboyaca.edu.co/",,,,
"University of Bunda Mulia",,"http://www.ubm.ac.id",,,,
"University of Cabuyao",,"http://www.pnc.edu.ph",,,,
"University of California, Irvine School of Medicine",,"http://www.som.uci.edu/",,,,
"University of Cambodia",,"http://www.uc.edu.kh/",,,,
"University of Cartagena",,"http://www.unicartagena.edu.co",,,,
"University of Cebu",,"https://www.universityofcebu.net/",,,,
"University of Chichester",,"http://www.chi.ac.uk/",,,,
"University of Chitral",,"http://www.uoch.pk",,,,
"University of Computer Studies, Yangon",,"http://www.ucsy.edu.mm/",,,,
"University of Derby",,"https://www.derby.ac.uk/",,,,
"University of Dhaka",,"https://du.ac.bd/",,,,
"University of Distance Education, Mandalay",,"http://www.mude.edu.mm",,,,
"University of Djibouti",,"http://www.univ.edu.dj/",,,,
"University of Dschang",,"http://www.univ-dschang.org/",,,,
"University of East",,"http://uoe.edu.pk",,,,
"University of Eastern Africa, Baraton",,"http://www.ueab.ac.ke/",,,,
"University of Economics and Innovation",,"http://www.wsei.lublin.pl",,,,
"University of Education",,"http://ue.edu.pk/",,,,
"University of Education, Winneba",,"http://www.uew.edu.gh/",,,,
"A. C. Subba Reddy Government Medical College",,,,,,
"Loyola High School (Detroit)",,,,,,
"Lumbini Engineering College",,,,,,
"Lyceum-Northwestern University",,,,,,
"M.G.R. Government Film and Television Training Institute",,,,,,
"M.M.U. College of Pharmacy",,,,,,
"MAM College of Engineering",,,,,,
"MBL Media School",,,,,,
"MIMAROPA Regional Science High School",,,,,,
"MKM Educational Trust",,,,,,
"MSU College",,,,,,
"MVGR College of Engineering",,,,,,
"Macau Security Force",,,,,,
"Mackintosh School of Architecture",,,,,,
"Madrasa Aminia Islamia Arabia",,,,,,
"Madrasatul Islah",,,,,,
"Magura Medical College",,,,,,
"Mahadeo Singh Law College",,,,,,
"Maharaja Ranjit Singh College of Professional Sciences",,,,,,
"Maharaja Surajmal Institute of Technology",,,,,,
"Maharashtra University of Health Sciences",,,,,,
"Maitripa College",,,,,,
"Makhanlal Chaturvedi National University of Journalism and Communication",,,,,,
"Carolina College (Maxton, North Carolina)",,,,,,
"Cornerstone College, Dimapur",,,,,,
"Ujjain Polytechnic College",,,,,,
"Unida Christian Colleges",,,,,,
"Union Institute & University",,,,,,
"United College, St Andrews",,,,,,
"United Medical and Dental Schools of Guy's and St Thomas' Hospitals",,,,,,
"Universidad Cristiana del Sur",,,,,,
"Universidad España",,,,,,
"Universidad Pedagógica Experimental Libertador",,,,,,
"Universidad Politécnica Metropolitana de Hidalgo",,,,,,
"Universidad San Juan de la Cruz",,,,,,
"Universidad del Museo Social Argentino",,,,,,
"Universidade Estadual do Maranhão",,,,,,
"Universiti Islam Malaysia",,,,,,
"Universiti Teknologi MARA, Perlis",,,,,,
"Universities at Medway",,,,,,
"University College of Jubail",,,,,,
"University College of Medicine and Dentistry",,,,,,
"University Shalom of Bunia",,,,,,
"University Without Walls (University of Massachusetts Amherst)",,,,,,
"University at Buffalo School of Engineering and Applied Sciences",,,,,,
"University for International Integration of the Afro-Brazilian Lusophony",,,,,,
"University of Alberta Faculty of Engineering",,,,,,
"University of Alberta Faculty of Extension",,,,,,
"University of Alberta Faculty of Medicine and Dentistry",,,,,,
"University of Alkafeel",,,,,,
"University of Allahabad",,,,,,
"University of Applied Sciences Campus Vienna",,,,,,
"University of Applied Sciences Europe",,,,,,
"University of Arkansas Graduate School and International Education",,,,,,
"University of Arts (Albania)",,,,,,
"University of Azad Jammu & Kashmir",,,,,,
"University of Bejaia",,,,,,
"University of Bijeljina",,,,,,
"University of Boumerdès Faculty of Sciences",,,,,,
"University of California, Irvine School of Humanities",,,,,,
"University of Central Asia",,,,,,
"University of Chile",,,,,,
"University of Computer Studies (Taungoo)",,,,,,
"University of Distance Education, Yangon",,,,,,
"University of Eastern Philippines",,,,,,
"University of Essex",,"http://www.essex.ac.uk/",51.8763,0.94487,"9500000.0",
"University of Findlay",,"https://www.findlay.edu/%7Cwww.findlay.edu",41.055,-83.655,"4.11E7",
"University of Florida College of Medicine",,"http://www.med.ufl.edu/",29.6402,-82.3435,"1.73E9",
"University of Glasgow",,"http://www.gla.ac.uk/",55.8719,-4.2875,"2.006E8",
"University of Gothenburg",,"http://www.gu.se/",57.6983,11.9717,"4.785E9",
"University of Graz",,"http://www.uni-graz.at/en",47.0781,15.4492,"1.893E8",
"University of Guadalajara",,"http://www.udg.mx/",20.675,-103.359,"1.0711145399E10",
"University of Guam",,"http://www.uog.edu",13.4333,144.8,"1.35E7",
"University of Guelph",,"http://www.uoguelph.ca/",43.5333,-80.2236,"4.52E8",
"University of Hassan II Casablanca",,"http://www.univh2c.ma/",33.5414,-7.59972,"1.03E9",
"University of Helsinki",,"https://www.helsinki.fi/en",60.1694,24.95,"6.24E8",
"University of Hertfordshire",,"http://www.herts.ac.uk",51.7533,-0.243889,"2.62",
"University of Huddersfield",,"http://hud.ac.uk/",53.6432,-1.77837,"2.47",
"University of Hull",,"http://www.hull.ac.uk/",53.7703,-0.367141,"1.88E7",
"University of Illinois School of Architecture",,"http://www.arch.uiuc.edu/",40.1034,-88.2291,"6674000.0",
"University of Indianapolis",,"http://www.uindy.edu",39.7097,-86.1351,"1.094E8",
"University of Jamestown",,"https://www.uj.edu/",46.914,-98.698,"3.61E7",
"University of King's College",,"http://www.ukings.ca/",44.6375,-63.5953,"5.14E7",
"University of La Rochelle",,"http://www.univ-larochelle.fr/",46.1478,-1.155,"6.8E7",
"University of La Verne",,"http://www.laverne.edu",34.1013,-117.771,"1.119E8",
"University of Leeds",,"http://www.leeds.ac.uk",53.8072,-1.55167,"7.72E7",
"University of Leicester",,"https://le.ac.uk/",52.6214,-1.12444,"1.77E7",
"University of León",,"https://www.unileon.es/",42.6121,-5.56022,"9.7E7",
"University of Lille",,"https://www.univ-lille.fr/",50.6317,3.07301,"6.0E8",
"University of Liverpool",,"http://www.liverpool.ac.uk",53.406,-2.967,"1.717E8",
"University of Louisville School of Medicine",,"https://louisville.edu/medicine",38.2484,-85.7485,"4.809E8",
"University of Lynchburg",,"http://www.lynchburg.edu",37.3985,-79.181,"1.129E8",
"University of Lyon",,"http://www.universite-lyon.fr/",45.7481,4.85235,"4000000.0",
"University of Malaya",,"http://www.um.edu.my/",3.12083,101.656,"3.85E8",
"University of Manchester",,"http://www.manchester.ac.uk/",53.4656,-2.23361,"2.384E8",
"University of Mary",,"http://www.umary.edu",46.722,-100.753,"4.23E7",
"University of Mary Hardin–Baylor",,"http://www.umhb.edu",31.0665,-97.4641,"5.955E7",
"University of Mary Washington",,"http://www.umw.edu",38.3019,-77.475,"5.55E7",
"University of Maryland, College Park",,"https://umd.edu",38.9875,-76.94,"3.553E8",
"University of Massachusetts Amherst",,"https://umass.edu",42.3889,-72.5278,"3.47E8",
"University of Massachusetts Dartmouth",,"http://www.umassd.edu",41.63,-71.002,"5.46E7",
"University of Massachusetts Lowell",,"https://www.uml.edu",42.6427,-71.3345,"9.99E7",
"University of Massachusetts Medical School",,"http://www.umassmed.edu",42.2768,-71.7624,"2.075E8",
"University of Medicine and Dentistry of New Jersey",,"https://web.archive.org/web/20040910092341/http:/www.umdnj.edu/",40.7415,-74.1893,"1.83E8",
"University of Medicine and Dentistry of New Jersey",,"https://web.archive.org/web/20040910092341/http://www.umdnj.edu/",40.7415,-74.1893,"1.83E8",
"University of Michigan College of Literature, Science, and the Arts",,"https://lsa.umich.edu",42.2762,-83.7413,"7.5E8",
"University of Minho",,"https://www.uminho.pt/EN/Pages/default.aspx",41.5608,-8.3968,"1.484E8",
"University of Missouri",,"https://missouri.edu",38.9453,-92.3288,"1.74E9",
"University of Mobile",,"http://www.umobile.edu",30.7933,-88.1288,"8.6E7",
"University of Montana",,"http://www.gogriz.com/",46.86,-113.985,"2.05E8",
"University of Mount Olive",,"http://www.umo.edu",35.2084,-78.0688,"3.8E7",
"University of Nantes",,"http://www.univ-nantes.fr/",47.24,-1.55,"3.53E8",
"University of Nevada, Las Vegas",,"https://unlv.edu",36.1078,-115.144,"2.923E8",
"University of New Brunswick",,"https://unb.ca",45.9456,-66.6408,"3.019E8",
"University of North Carolina School of the Arts",,"http://www.uncsa.edu",36.0755,-80.2364,"2.55E7",
"University of North Carolina at Chapel Hill",,"https://unc.edu",35.9086,-79.0492,"3.67E9",
"University of North Texas",,"https://unt.edu",33.2097,-97.15,"2.106E8",
"University of North Texas Health Science Center",,"http://www.unthsc.edu/",32.7486,-97.3694,"1.434E8",
"University of Northern British Columbia",,"https://www.unbc.ca",53.8873,-122.814,"6.14E7",
"University of Nottingham",,"http://www.nottingham.ac.uk/",52.939,-1.197,"5.85E7",
"University of Oklahoma",,"https://ou.edu",35.2086,-97.4458,"1.736E9",
"University of Ontario Institute of Technology",,"https://ontariotechu.ca/",43.9448,-78.8917,"2.38E7",
"University of Oregon",,"https://uoregon.edu",44.045,-123.075,"9.4E8",
"University of Ottawa",,"http://www.uottawa.ca",45.4222,-75.6824,"2.796E8",
"University of Paris 8 Vincennes-Saint-Denis",,"http://www.univ-paris8.fr/en/",48.9447,2.36333,"1.13E8",
"University of Pikeville",,"http://www.upike.edu/",37.4791,-82.5212,"1.42E7",
"University of Pittsburgh",,"https://pitt.edu",40.4446,-79.9533,"4.31E9",
"University of Plymouth",,"http://www.plymouth.ac.uk/",50.3741,-4.13851,"0.475",
"University of Portsmouth",,"http://www.port.ac.uk/",50.7953,-1.0936,"1.79",
"University of Pretoria",,"http://www.up.ac.za/",-25.7325,28.2028,"2470.0",
"University of Prince Edward Island",,"http://upei.ca/",46.259,-63.138,"4.0E7",
"University of Puerto Rico at Humacao",,"http://www.uprh.edu",18.1443,-65.8313,"2739.0",
"University of Puerto Rico at Mayagüez",,"http://www.uprm.edu",18.2094,-67.1417,"2.56E8",
"University of Puget Sound",,"http://www.pugetsound.edu/",47.2626,-122.482,"3.805E8",
"University of Reading",,"http://www.reading.ac.uk/",51.4419,-0.945556,"1.4E7",
"University of Redlands",,"http://www.redlands.edu/",34.0631,-117.164,"1.823E8",
"University of Rio Grande",,"https://www.rio.edu/",38.8803,-82.3767,"2.0853211E7",
"University of Rio Grande",,"http://www.rio.edu/%7COfficial",38.8803,-82.3767,"2.0853211E7",
"University of Rochester",,"https://rochester.edu",43.1283,-77.6283,"2.24E9",
"University of Saint Joseph (Connecticut)",,"http://www.usj.edu",41.7796,-72.7305,"3.48E7",
"University of Salford",,"http://www.salford.ac.uk",53.4844,-2.27139,"49.0",
"University of San Francisco",,"http://www.usfca.edu/",37.7794,-122.452,"3.996E8",
"University of Saskatchewan",,"https://www.usask.ca",52.1297,-106.633,"2.14E8",
"University of Saskatchewan College of Agriculture and Bioresources",,"http://www.agbio.usask.ca/",52.1329,-106.632,"38.0",
"University of Scranton",,"https://www.scranton.edu",41.406,-75.657,"2.098E8",
"University of Sharjah",,"http://www.sharjah.ac.ae/",25.2875,55.4769,"6.05E8",
"University of Sheffield",,"http://www.sheffield.ac.uk/",53.3807,-1.4888,"4.6E7",
"University of South Australia",,"http://www.unisa.edu.au/",-34.9248,138.596,"6.108E8",
"University of Southampton",,"https://www.southampton.ac.uk/",50.9346,-1.39595,"1.29E7",
"University of Southern California",,"https://usc.edu",34.0217,-118.285,"5.73E9",
"University of Southern Indiana",,"http://www.gousieagles.com",37.9626,-87.6761,"1.03E8",
"University of Southern Mississippi",,"https://usm.edu",31.3296,-89.3338,"1.049E8",
"University of St. Francis",,"http://www.stfrancis.edu",41.533,-88.0955,"2.09E7",
"University of St. Thomas (Minnesota)",,"http://www.stthomas.edu/",44.9403,-93.1934,"5.406E8",
"University of St. Thomas (Texas)",,"http://www.stthom.edu",29.7367,-95.3932,"7.836E7",
"University of Stirling",,"http://www.stir.ac.uk",56.1458,-3.91944,"3.2",
"University of Strathclyde",,"https://www.strath.ac.uk",55.8617,-4.2417,"35.1",
"University of Strathclyde",,"http://www.strath.ac.uk/",55.8617,-4.2417,"35.1",
"University of Surrey",,"http://surrey.ac.uk",51.2431,-0.589444,"2600000.0",
"University of Tabriz",,"http://tabrizu.ac.ir/en",38.0636,46.3286,"5.605E7",
"University of Tasmania",,"http://www.utas.edu.au/",-42.9047,147.323,"5.61E8",
"University of Technology Sydney",,"http://uts.edu.au",-33.8836,151.201,"1.47E8",
"University of Technology and Business",,"http://unitye.es",40.4223,-3.70591,"6.3400789E7",
"University of Tehran",,"http://ut.ac.ir/en",35.7035,51.3952,"1.997E8",
"University of Texas Health Science Center at Houston",,"https://www.uth.edu",29.7033,-95.4029,"4.876E8",
"University of Texas Medical Branch",,"http://www.utmb.edu/",29.3107,-94.7771,"5.6E8",
"University of Texas Southwestern Medical Center",,"http://www.utsouthwestern.edu/",32.8126,-96.8384,"1.82E9",
"University of Texas at Arlington",,"https://uta.edu",32.7307,-97.1146,"1.59E8",
"University of Texas at Austin College of Liberal Arts",,"https://www.utexas.edu/cola/",30.2849,-97.7355,"3.106E8",
"University of Texas at Dallas",,"https://utdallas.edu",32.985,-96.75,"5.58E8",
"University of Texas at El Paso",,"https://utep.edu",31.77,-106.505,"2.417E8",
"University of Texas at San Antonio",,"https://utsa.edu",29.5849,-98.617,"1.72E8",
"University of Toledo",,"https://www.utoledo.edu/",41.6577,-83.6137,"4.541E8",
"University of Toronto",,"https://utoronto.ca",43.6617,-79.395,"2.84E9",
"University of Toronto",,"https://utoronto.ca",43.6617,-79.395,"2.59E9",
"University of Utah",,"https://utah.edu",40.765,-111.85,"1.225E9",
"University of Victoria",,"https://www.uvic.ca/",48.4633,-123.312,"4.7E8",
"University of Virginia Darden School of Business",,"https://www.darden.virginia.edu/",38.0521,-78.5139,"4.484E8",
"University of Warsaw",,"http://en.uw.edu.pl/",52.2403,21.0192,"1.132E9",
"University of Warwick",,"https://warwick.ac.uk/",52.3801,-1.56193,"1.2E7",
"University of Waterloo",,"https://uwaterloo.ca/",43.4689,-80.54,"3.9E8",
"University of West Alabama",,"http://www.uwa.edu/",32.59,-88.186,"375613.0",
"University of West London",,"http://www.uwl.ac.uk",51.5064,-0.304167,"1630000.0",
"University of Western Ontario",,"https://www.uwo.ca/%7Cuwo.ca",43.0083,-81.2725,"8.037E8",
"University of Westminster",,"http://www.westminster.ac.uk/",51.517,-0.142972,"5100000.0",
"University of Windsor",,"http://www.uwindsor.ca/",42.3067,-83.0658,"1.18734E8",
"University of Wisconsin–Milwaukee",,"http://uwm.edu",43.075,-87.8829,"2.62E8",
"University of Wisconsin–Parkside",,"https://www.uwp.edu/",42.6444,-87.8525,"5550342.0",
"University of Evansville",,,37.9714,-87.5317,"8.57E7",
"University of Florida",,,29.6483,-82.3494,"1.825E9",
"University of Florida Health Science Center",,,29.64,-82.35,"1.73E9",
"University of Georgia",,,33.9558,-83.3745,"1.344E9",
"University of Greenwich",,,51.4834,-0.006075,"1300000.0",
"University of Guelph-Humber",,,43.728,-79.606,"10.0",
"University of Hartford",,,41.8009,-72.714,"1.828E8",
"University of Hawaiʻi at Hilo",,,19.6996,-155.082,"1.8E8",
"University of Hawaiʻi at Mānoa",,,21.297,-157.817,"3.27E8",
"University of Houston",,,29.7189,-95.3392,"9.598E8",
"University of Houston System",,,29.7204,-95.3437,"9.598E8",
"University of Houston–Clear Lake",,,29.5776,-95.1073,"2.26E7",
"University of Houston–Downtown",,,29.7659,-95.3597,"3.47E7",
"University of Houston–Victoria",,,28.8164,-96.9764,"1.52E7",
"University of Idaho",,,46.726,-117.011,"2.919E8",
"University of Illinois at Chicago",,,41.8717,-87.6492,"2.28E9",
"University of Illinois at Springfield",,,39.729,-89.6177,"1.21E7",
"University of Illinois at Urbana–Champaign",,,40.1106,-88.2283,"2.35E9",
"University of Iowa",,,41.6617,-91.5364,"1.58E9",
"University of Kansas",,,38.9581,-95.2478,"1.82E9",
"University of Kent",,,51.297,1.069,"5528000.0",
"University of Kentucky",,,38.0333,-84.5,"1.407E9",
"University of Lorraine",,,48.6961,6.17667,"5.62E8",
"University of Louisiana at Lafayette",,,30.2126,-92.0193,"1.532E8",
"University of Louisiana at Monroe",,,32.527,-92.074,"2.3157741E7",
"University of Louisville",,,38.215,-85.7603,"7.198E8",
"University of Maine",,,44.8994,-68.6681,"3.65E8",
"University of Manitoba",,,49.8094,-97.1328,"7.098E8",
"University of Maryland, Baltimore County",,,39.2555,-76.7113,"1.052E8",
"University of Maryland Eastern Shore",,,38.21,-75.6856,"2.62E7",
"University of Maryland Eastern Shore",,,38.21,-75.685,"2.62E7",
"University of Maryland Eastern Shore",,,38.212,-75.6856,"2.62E7",
"University of Maryland Eastern Shore",,,38.212,-75.685,"2.62E7",
"University of Massachusetts Boston",,,42.3134,-71.0384,"7.89E7",
"University of Melbourne",,,-37.7963,144.961,"1.335E9",
"University of Memphis",,,35.119,-89.937,"2.234E8",
"University of Miami",,,25.7216,-80.2793,"9.974E8",
"University of Michigan",,,42.2769,-83.7381,"1.244E10",
"University of Michigan–Dearborn",,,42.3197,-83.2331,"5.6E7",
"University of Michigan–Flint",,,43.0185,-83.6887,"1.131E8",
"University of Minnesota",,,44.9747,-93.2354,"3.95E9",
"University of Minnesota Morris",,,45.5903,-95.9,"1.2661923E7",
"University of Mississippi",,,34.365,-89.538,"7.363E8",
"University of Missouri College of Arts and Science",,,38.9453,-92.3273,"4.92E8",
"University of Missouri–Kansas City",,,39.0335,-94.5756,"1.12E9",
"University of Missouri–St. Louis",,,38.7102,-90.3111,"8.65E7",
"University of Mount Union",,,40.9047,-81.1106,"1.403E8",
"University of Naples Federico II",,,40.8472,14.2569,"4.73E8",
"University of Nebraska Medical Center",,,41.256,-95.9758,"7.74E8",
"University of Nebraska Omaha",,,41.2596,-96.0051,"7.16E7",
"University of Nebraska–Lincoln",,,40.8175,-96.7014,"1.435E9",
"University of Nevada, Reno",,,39.5378,-119.817,"3.774E8",
"University of Nevada, Reno",,,39.5378,-119.814,"3.774E8",
"University of Nevada, Reno",,,39.5458,-119.817,"3.774E8",
"University of Nevada, Reno",,,39.5458,-119.814,"3.774E8",
"University of New Hampshire",,,43.1356,-70.9333,"4.04E8",
"University of New Haven",,,41.2919,-72.9622,"1.3E8",
"University of New Orleans",,,30.0275,-90.0671,"7.42E7",
"University of North Alabama",,,34.81,-87.68,"3.66E7",
"University of North Carolina Wilmington",,,34.2266,-77.878,"1.049E8",
"University of North Carolina at Asheville",,,35.6162,-82.5661,"5.35E7",
"University of North Carolina at Charlotte",,,35.3036,-80.7324,"2.3035E8",
"University of North Carolina at Greensboro",,,36.0695,-79.8114,"3.076E8",
"University of North Carolina at Pembroke",,,34.685,-79.2019,"2.49E7",
"University of North Dakota",,,47.9222,-97.0734,"2.848E8",
"University of North Florida",,,30.2619,-81.5097,"1.162E8",
"University of Northern Colorado",,,40.4049,-104.697,"8.98E7",
"University of Northern Iowa",,,42.515,-92.4606,"1.29E8",
"University of Notre Dame",,,41.6996,-86.239,"1.38E10",
"University of Notre Dame",,,41.6996,-86.2371,"1.38E10",
"University of Notre Dame",,,41.703,-86.239,"1.38E10",
"University of Notre Dame",,,41.703,-86.2371,"1.38E10",
"University of Oklahoma College of Medicine",,,35.4783,-97.4989,"4.5E8",
"University of Oxford",,,51.755,-1.255,"6.1E9",
"University of Pennsylvania",,,39.95,-75.19,"1.465E10",
"University of Peradeniya",,,7.25417,80.5967,"2.265E9",
"University of Portland",,,45.5725,-122.727,"1.402E8",
"University of Queensland",,,-27.4972,153.013,"2.243E8",
"University of Regina",,,50.4156,-104.588,"9.75E7",
"University of Rhode Island",,,41.4807,-71.5258,"1.492E8",
"University of Richmond",,,37.5752,-77.5387,"2.52E9",
"University of San Diego",,,32.7711,-117.188,"5.456E8",
"University of Science and Arts of Oklahoma",,,35.0314,-97.9547,"2.7E7",
"University of Sioux Falls",,,43.5308,-96.7387,"3.03E7",
"University of South Alabama",,,30.6967,-88.1787,"3.835E8",
"University of South Carolina",,,33.9975,-81.0253,"7.883E8",
"University of South Dakota",,,42.7861,-96.9253,"2.88E8",
"University of South Florida",,,28.0546,-82.4131,"5.135E8",
"University of Sussex",,,50.8653,-0.0855556,"1.23E7",
"University of Tampa",,,27.9472,-82.4654,"3.89E7",
"University of Tampere",,,61.4942,23.7781,"1.846E8",
"University of Technology of Compiègne",,,49.4002,2.79965,"8.24E7",
"University of Technology of Troyes",,,48.2692,4.06709,"3.9E7",
"University of Tennessee",,,35.9517,-83.93,"1.355E9",
"University of Tennessee at Chattanooga",,,35.0458,-85.2999,"2.5E8",
"University of Tennessee at Martin",,,36.3418,-88.8671,"2.72E7",
"University of Texas Rio Grande Valley",,,26.3046,-98.1742,"4.613E7",
"University of Texas at Austin",,,30.285,-97.735,"3.01E10",
"University of Texas at Brownsville",,,25.8991,-97.4915,"1.25E7",
"University of Texas at Tyler",,,32.3173,-95.2519,"7.61E7",
"University of Texas–Pan American",,,26.3062,-98.1732,"6.5E7",
"University of Toulouse-Jean Jaurès",,,43.5777,1.40406,"175.0",
"University of Tulsa",,,36.1522,-95.9464,"1.114E9",
"University of Vermont",,,44.476,-73.195,"4.677E8",
"University of Virginia",,,38.0356,-78.5033,"9.6E9",
"University of Virginia's College at Wise",,,36.9725,-82.5561,"1.08E8",
"University of Washington",,,47.6542,-122.308,"2.94E9",
"University of Washington Bothell",,,47.7594,-122.191,"3000000.0",
"University of West Florida",,,30.5495,-87.2181,"7.91E7",
"University of West Georgia",,,33.5717,-85.1147,"2.7919873E7",
"University of Wisconsin–Eau Claire",,,44.799,-91.4993,"8.11E7",
"University of Wisconsin–La Crosse",,,43.8155,-91.231,"4.16E7",
"University of Wisconsin–Madison",,,43.075,-89.4172,"3.15E9",
"University of Wisconsin–Oshkosh",,,44.0253,-88.551,"1.818E7",
"University of Wisconsin–Platteville",,,42.733,-90.488,"2.3442846E7",
"University of El Salvador",,"http://www.ues.edu.sv/",13.7183,-89.2031,,
"University of Electro-Communications",,"http://www.uec.ac.jp",35.6558,139.544,,
"University of Energy and Natural Resources",,"http://www.uenr.edu.gh",7.34949,-2.3435,,
